[
    {
        "name": "ROSE SPA",
        "address": "32-01 75th St",
        "lat": 40.75689,
        "lon": -73.89196
    },
    {
        "name": "NY ASIAN FITNESS NYAF",
        "address": "123 West 39th st.",
        "lat": 40.75358,
        "lon": -73.98641
    },
    {
        "name": "PARADISE SPA",
        "address": "356 W 40th St",
        "lat": 40.75684,
        "lon": -73.99326
    },
    {
        "name": "J & D RELAXATION",
        "address": "112-06 Queens Blvd",
        "lat": 40.71784,
        "lon": -73.8367
    },
    {
        "name": "BEAUTIFUL SPRING SPA",
        "address": "75-25 Parsons Blvd.",
        "lat": 40.72573,
        "lon": -73.81044
    },
    {
        "name": "NEW DAY SPA",
        "address": "14 Dawn Dr",
        "lat": 40.85881,
        "lon": -73.08582
    },
    {
        "name": "FU KANG REFLEXOLOGY CENTER",
        "address": "94 Bayard St 2 Fl, Ste 1",
        "lat": 40.71607,
        "lon": -73.99942
    },
    {
        "name": "SUNDAY SPA",
        "address": "119 East 96th St",
        "lat": 40.78641,
        "lon": -73.95153
    },
    {
        "name": "CREAM DREAM SPA",
        "address": "829 6th Ave 2F",
        "lat": 40.74663,
        "lon": -73.99043
    },
    {
        "name": "SHANGRILA",
        "address": "48th street",
        "lat": 40.76145,
        "lon": -73.98798
    },
    {
        "name": "MAIYOMI TRADITIONS TECHNIQUE RESTORE",
        "address": "139 Centre St 1st FL 7a",
        "lat": 40.71748,
        "lon": -74.00071
    },
    {
        "name": "GRAND SPA",
        "address": "33 W Grand St",
        "lat": 40.92557,
        "lon": -73.83752
    },
    {
        "name": "NEW YOU YA SPA",
        "address": "357 Boyle Rd, Selden",
        "lat": 40.88828,
        "lon": -73.05206
    },
    {
        "name": "PARKWAY HEALTHY SPA",
        "address": "1643 Eastern Parkway",
        "lat": 42.80688,
        "lon": -73.91205
    },
    {
        "name": "WEI LUCKY SPA",
        "address": "1817 Central Ave",
        "lat": null,
        "lon": null
    },
    {
        "name": "RED ROSE SPA NYC",
        "address": "248 West 14th St",
        "lat": 40.73926,
        "lon": -74.00212
    },
    {
        "name": "FRIENDLY  BEUTY SPA",
        "address": "53rd Street, 7th Avenue",
        "lat": 40.76297,
        "lon": -73.98189
    },
    {
        "name": "LAKE SPA",
        "address": "256-10 Union Turnpike",
        "lat": 40.74521,
        "lon": -73.71471
    },
    {
        "name": "SUNNY SPA",
        "address": "1071 stoneleigh Ave",
        "lat": 41.41163,
        "lon": -73.66887
    },
    {
        "name": "ELEGANT SPA",
        "address": "870 W Jericho Turnpike",
        "lat": 40.82523,
        "lon": -73.44225
    },
    {
        "name": "SUNNY SPA",
        "address": "60 Pearl St 2nd Fl",
        "lat": 40.70344,
        "lon": -74.01109
    },
    {
        "name": "NEW CITY SPA, INC.",
        "address": "61-04 68th Avenue",
        "lat": 40.70527,
        "lon": -73.89605
    },
    {
        "name": "OCEAN BEAUTY BODY SPA",
        "address": "1750 Merrick Ave",
        "lat": 40.67518,
        "lon": -73.55761
    },
    {
        "name": "41 SPA",
        "address": "41 E 41st St 2 Floor",
        "lat": 40.75191,
        "lon": -73.97889
    },
    {
        "name": "CH168SPA",
        "address": "123-21 Jamaica ave Richmond",
        "lat": 40.69665,
        "lon": -73.83308
    },
    {
        "name": "JINFU SPA",
        "address": "163 Mott St",
        "lat": 40.71969,
        "lon": -73.99643
    },
    {
        "name": "SUN SHINE DAY SPA",
        "address": "120 Elizabeth Street",
        "lat": 40.71921,
        "lon": -73.99525
    },
    {
        "name": "VITALITY SPA",
        "address": "128 Baxter St ,",
        "lat": 40.71828,
        "lon": -73.99908
    },
    {
        "name": "CLOUD 9 SPA",
        "address": "92-29 Queens Blvd",
        "lat": 40.73247,
        "lon": -73.86708
    },
    {
        "name": "GIGI SPA",
        "address": "25-05 Newtown Ave,1st Floor,",
        "lat": 40.77043,
        "lon": -73.92327
    },
    {
        "name": "LEAR TALENT",
        "address": "Midtown",
        "lat": 40.84098,
        "lon": -73.9448
    },
    {
        "name": "THE RELAXING GARDEN",
        "address": "225 Harrison Ave,",
        "lat": 40.96802,
        "lon": -73.71248
    },
    {
        "name": "AROMA FOOT SPA",
        "address": "1602 Route 9",
        "lat": 42.85204,
        "lon": -73.7573
    },
    {
        "name": "RED MAY SPA",
        "address": "124 Saratoga Rd",
        "lat": 42.85932,
        "lon": -73.93474
    },
    {
        "name": "JP KAWAII CLUB",
        "address": "West 35th Street",
        "lat": 40.74911,
        "lon": -73.98407
    },
    {
        "name": "SF SPA",
        "address": "5905 E Taft Rd",
        "lat": 43.12567,
        "lon": -76.11208
    },
    {
        "name": "MAGIC TOUCH SPA",
        "address": "705 Wolf St",
        "lat": 43.0761,
        "lon": -76.16086
    },
    {
        "name": "MANGO SPA",
        "address": "39-06 108th St #6",
        "lat": null,
        "lon": null
    },
    {
        "name": "LUCKY FOOT SPA",
        "address": "12-58 150th street",
        "lat": 40.78915,
        "lon": -73.81422
    },
    {
        "name": "CHINESE QIGONG TUINA MASSAGE",
        "address": "4777A Broadway",
        "lat": 40.86597,
        "lon": -73.92668
    },
    {
        "name": "NINE NINE SPA",
        "address": "37 W 43rd St 2FL",
        "lat": 40.75514,
        "lon": -73.98219
    },
    {
        "name": "STUDIO28SPA",
        "address": "166 w 28th street",
        "lat": 40.74705,
        "lon": -73.99314
    },
    {
        "name": "FANTASIES OF NYC",
        "address": "Kissena blvd and Cherry Ave",
        "lat": 40.75388,
        "lon": -73.82279
    },
    {
        "name": "STAR BODYWORK",
        "address": "1587 Central Park Ave #5",
        "lat": null,
        "lon": null
    },
    {
        "name": "SATORI DAY SPA",
        "address": "41A Main St",
        "lat": 40.8311,
        "lon": -73.68632
    },
    {
        "name": "SEASON NATURAL SPA",
        "address": "3 E Deer Park Rd",
        "lat": 40.83522,
        "lon": -73.33538
    },
    {
        "name": "EAST GARDEN SPA",
        "address": "23 W 45TH ST 3FL",
        "lat": 40.75608,
        "lon": -73.98051
    },
    {
        "name": "NEW WONDERFUL SPRING",
        "address": "295 Court St",
        "lat": 40.68398,
        "lon": -73.99491
    },
    {
        "name": "POM POM SPA",
        "address": "243 W 38th St",
        "lat": 40.75436,
        "lon": -73.9902
    },
    {
        "name": "KOREAN SPA",
        "address": "45th St. 2nd Floor",
        "lat": null,
        "lon": null
    },
    {
        "name": "1730 SPA",
        "address": "1730 Central Park Ave #1P",
        "lat": null,
        "lon": null
    },
    {
        "name": "HEMPSTEAD ASIAN SPA",
        "address": "896 Hempstead Turnpike #2FL",
        "lat": null,
        "lon": null
    },
    {
        "name": "SENSUAL SPA",
        "address": "1149 Broadway #3FL",
        "lat": null,
        "lon": null
    },
    {
        "name": "BEST MASSAGE",
        "address": "3141 Rte 9W",
        "lat": 41.48141,
        "lon": -74.01651
    },
    {
        "name": "DREAM DREAM YOU",
        "address": "135 W 24th street",
        "lat": 40.74448,
        "lon": -73.99368
    },
    {
        "name": "NATURE THERAPY",
        "address": "160 Commack Rd Ste LL2",
        "lat": 40.83835,
        "lon": -73.29381
    },
    {
        "name": "EUROPEAN SPA",
        "address": "17 King St",
        "lat": 41.00098,
        "lon": -73.66345
    },
    {
        "name": "HARU SPA",
        "address": "42 -44 Canal St 2 FL",
        "lat": 40.71461,
        "lon": -73.9915
    },
    {
        "name": "OCEAN BEAUTY SPA #2",
        "address": "1083 manhattan ave",
        "lat": 40.73561,
        "lon": -73.95543
    },
    {
        "name": "ORIENTAL MASSAGE",
        "address": "32-78 48th St,",
        "lat": 40.75391,
        "lon": -73.91448
    },
    {
        "name": "ROMANTIC SPA",
        "address": "34-01 45th St",
        "lat": 40.75459,
        "lon": -73.91675
    },
    {
        "name": "ROYAL GARDEN NYC",
        "address": "30th and 5th Ave",
        "lat": 40.77441,
        "lon": -73.96562
    },
    {
        "name": "A+SPA",
        "address": "32-20 137str flushing NY 11354",
        "lat": 40.76745,
        "lon": -73.83087
    },
    {
        "name": "EVERGREEN RELAXATION",
        "address": "1291 Dolsontown Rd",
        "lat": 41.42893,
        "lon": -74.40525
    },
    {
        "name": "JM SPA",
        "address": "222 E 75th St",
        "lat": 40.77108,
        "lon": -73.95826
    },
    {
        "name": "LILY SPA",
        "address": "674 55th St",
        "lat": 40.63972,
        "lon": -74.00939
    },
    {
        "name": "SPARELAX SPA",
        "address": "157 N 5th St",
        "lat": 40.71655,
        "lon": -73.95833
    },
    {
        "name": "SPRAY SUN",
        "address": "49 Lake rd",
        "lat": 41.15004,
        "lon": -73.94017
    },
    {
        "name": "SUNFLOWER SPA",
        "address": "339 5th st",
        "lat": 40.66817,
        "lon": -73.98006
    },
    {
        "name": "ASIAN MASSAGE",
        "address": "102-51 Jamaica Ave Richmond hill ny 114",
        "lat": 40.69537,
        "lon": -73.84349
    },
    {
        "name": "KAWAYI SPA",
        "address": "42-09 162nd St",
        "lat": 40.75985,
        "lon": -73.80383
    },
    {
        "name": "JAMAICA MASSAGE SPA",
        "address": "185-09 Jamaica Ave",
        "lat": 40.71002,
        "lon": -73.77378
    },
    {
        "name": "HAPPY OCEAN SPA",
        "address": "244 E 32nd St",
        "lat": 40.74363,
        "lon": -73.97758
    },
    {
        "name": "CHERRY TREE SPA",
        "address": "54 W 39th St 4th Floor",
        "lat": 40.7524,
        "lon": -73.98477
    },
    {
        "name": "38 MATE",
        "address": "240 W 38th St",
        "lat": 40.75397,
        "lon": -73.99026
    },
    {
        "name": "ACUPOINT RELAXATION SPA",
        "address": "204 Amsden Dr",
        "lat": 43.06415,
        "lon": -77.60942
    },
    {
        "name": "SUNNY FOOT SPA",
        "address": "3333 w Henrietta Rd suite 30",
        "lat": 43.08868,
        "lon": -77.64492
    },
    {
        "name": "SWEET SPA 29",
        "address": "37 E 29th St, 2nd floor",
        "lat": 40.74443,
        "lon": -73.98431
    },
    {
        "name": "EXOTIC ASIAN MASSAGE",
        "address": "2331 Medford Ave",
        "lat": 40.81686,
        "lon": -72.99969
    },
    {
        "name": "OCEART SPA",
        "address": "76 Route 9W ste 4",
        "lat": 41.19644,
        "lon": -73.97228
    },
    {
        "name": "BODY WORK SPA",
        "address": "315 West 55th St",
        "lat": 40.76592,
        "lon": -73.98459
    },
    {
        "name": "SEOUL SPA",
        "address": "900 Ulster Ave",
        "lat": 41.95571,
        "lon": -73.99409
    },
    {
        "name": "ELEGANT SPA",
        "address": "5177 US 9W",
        "lat": 41.53951,
        "lon": -74.01336
    },
    {
        "name": "BODYRUB BY LAYLA",
        "address": "E 34th st",
        "lat": 40.74588,
        "lon": -73.97849
    },
    {
        "name": "RELAXING TIME SPA",
        "address": "2506 Brewerton Rd",
        "lat": 43.10187,
        "lon": -76.14513
    },
    {
        "name": "120 SUN SPA",
        "address": "120 Saint Marks Pl",
        "lat": 40.72681,
        "lon": -73.98404
    },
    {
        "name": "BLUE OCEAN",
        "address": "236 West 40th Street",
        "lat": 40.75517,
        "lon": -73.98933
    },
    {
        "name": "2003 XIAOYAN SPA",
        "address": "2003 Route 52, Ste 7",
        "lat": 41.54297,
        "lon": -73.83442
    },
    {
        "name": "PINK SPA",
        "address": "2311 Coney Island Ave,2FL",
        "lat": 40.60082,
        "lon": -73.96109
    },
    {
        "name": "159 SPA",
        "address": "159 Route 304",
        "lat": 41.10346,
        "lon": -73.99762
    },
    {
        "name": "VENUS TOUCH",
        "address": "E 38th St",
        "lat": 40.74887,
        "lon": -73.97778
    },
    {
        "name": "PURE BLISS SPA FLUSHING",
        "address": "133-51 37th Avenue",
        "lat": 40.76088,
        "lon": -73.83339
    },
    {
        "name": "YING DONG MEI SPA",
        "address": "45 Bayard St",
        "lat": 40.71507,
        "lon": -73.99735
    },
    {
        "name": "FUN GIRL SPA",
        "address": "37 W 43rd St",
        "lat": 40.75514,
        "lon": -73.98219
    },
    {
        "name": "PLEASURE PALACE",
        "address": "1420 BROADWAY 3FL 10018",
        "lat": 40.75388,
        "lon": -73.9868
    },
    {
        "name": "TAIJI BODY WORK PENG\u2019S MASSAGE",
        "address": "35 St. Marks Place Fl 2",
        "lat": 40.72892,
        "lon": -73.98803
    },
    {
        "name": "SUNNY SPA",
        "address": "825 East Jericho Tpke",
        "lat": 40.83489,
        "lon": -73.3809
    },
    {
        "name": "NURU STUDIO",
        "address": "768 9th ave",
        "lat": 40.76428,
        "lon": -73.98799
    },
    {
        "name": "ASIAN BODY CARE",
        "address": "25-19 Astoria Blvd",
        "lat": 40.77134,
        "lon": -73.92209
    },
    {
        "name": "BODY RELAXATION CENTER",
        "address": "400 NY-17M #11",
        "lat": null,
        "lon": null
    },
    {
        "name": "CHOI'S BARBER SHOP",
        "address": "18 W 37th St",
        "lat": 40.75069,
        "lon": -73.98435
    },
    {
        "name": "FOUR SEASON STUDIO",
        "address": "17 Main St",
        "lat": 40.7993,
        "lon": -73.65026
    },
    {
        "name": "SHALOM ADONAI SALON SPA",
        "address": "1343 Ogden Ave",
        "lat": 40.84113,
        "lon": -73.92556
    },
    {
        "name": "U SPA",
        "address": "237 E 79th St G2",
        "lat": 40.77382,
        "lon": -73.95552
    },
    {
        "name": "207 SPA",
        "address": "899 Little Brittan Rd.",
        "lat": 41.48574,
        "lon": -74.08025
    },
    {
        "name": "BALI SUNSET SPA",
        "address": "579 5th Avenue",
        "lat": 40.66817,
        "lon": -73.98006
    },
    {
        "name": "PINK ANGEL",
        "address": "37th Avenue & Main St",
        "lat": 40.75019,
        "lon": -73.88013
    },
    {
        "name": "WONDERFUL SPA",
        "address": "342 E 22nd St",
        "lat": 40.73628,
        "lon": -73.97945
    },
    {
        "name": "BLOSSOM SPA",
        "address": "835 3rd Ave #2nd flr",
        "lat": null,
        "lon": null
    },
    {
        "name": "BEAUTY HEALTH SPA",
        "address": "124 Fulton St.",
        "lat": 40.71006,
        "lon": -74.00765
    },
    {
        "name": "LANA BODY RUB",
        "address": "E 50th st",
        "lat": 40.75584,
        "lon": -73.97078
    },
    {
        "name": "JJ SPA",
        "address": "23-20 Broadway",
        "lat": 40.7595,
        "lon": -73.92716
    },
    {
        "name": "UPSCALE BODYRUB",
        "address": "969 3rd Ave",
        "lat": 40.83275,
        "lon": -73.90509
    },
    {
        "name": "K&D WELLNESS",
        "address": "w 35th st",
        "lat": 40.74911,
        "lon": -73.98407
    },
    {
        "name": "254 HANNA SPA",
        "address": "254 Route 17, Suite 107",
        "lat": 41.04965,
        "lon": -74.11737
    },
    {
        "name": "ACUPUNCTURE & BODY WORK",
        "address": "2108 Grand Ave, Baldwin, NY 11510",
        "lat": 40.65854,
        "lon": -73.60873
    },
    {
        "name": "BODY WORK SPA",
        "address": "1015 6TH AVE 2ND FLOOR",
        "lat": 40.75228,
        "lon": -73.98634
    },
    {
        "name": "HAN NA SPA",
        "address": "42-12 30th Ave",
        "lat": 40.7628,
        "lon": -73.91309
    },
    {
        "name": "K SPA",
        "address": "762Main Street",
        "lat": 40.89711,
        "lon": -73.78603
    },
    {
        "name": "UMI SPA",
        "address": "2235 Empire Blvd",
        "lat": 43.20338,
        "lon": -77.49539
    },
    {
        "name": "VN FOOT SPA",
        "address": "119-01 Metropolitan Ave",
        "lat": 40.70636,
        "lon": -73.83153
    },
    {
        "name": "HOLLY SPA",
        "address": "32 W State St",
        "lat": 42.10915,
        "lon": -75.9046
    },
    {
        "name": "CENTRAL SPA",
        "address": "997 Central ave",
        "lat": 42.72266,
        "lon": -73.83014
    },
    {
        "name": "BELLA DONNA SPA",
        "address": "323 Merrick Road, 2nd Floor",
        "lat": 40.65737,
        "lon": -73.67203
    },
    {
        "name": "SUGAR PINE SPA",
        "address": "953 New York Ave",
        "lat": 40.85794,
        "lon": -73.41484
    },
    {
        "name": "APRIL SPA",
        "address": "745 Middle Country Rd.",
        "lat": 40.8614,
        "lon": -73.15091
    },
    {
        "name": "BLUE MOON SPA",
        "address": "63 Grand Ave",
        "lat": 40.67785,
        "lon": -73.47172
    },
    {
        "name": "MAYBROOK SPA",
        "address": "89 Homestead Ave",
        "lat": 41.4813,
        "lon": -74.22167
    },
    {
        "name": "MIDTOWN MASSAGE SPA",
        "address": "3 E 48th St",
        "lat": 40.75726,
        "lon": -73.97747
    },
    {
        "name": "MORNING DEW FOOT SPA",
        "address": "398 Larkfield Rd",
        "lat": 40.86623,
        "lon": -73.32203
    },
    {
        "name": "SKYLINE SPA",
        "address": "234 W 56th St Fl 2",
        "lat": 40.7655,
        "lon": -73.98275
    },
    {
        "name": "THERAPUTIC FOOT SPA",
        "address": "31 Ira Road Syosset 11791 United States",
        "lat": 40.82348,
        "lon": -73.50154
    },
    {
        "name": "VIP POP GIRL SPA",
        "address": "153 West 36th Street",
        "lat": 40.75216,
        "lon": -73.98881
    },
    {
        "name": "GOLD SPA",
        "address": "2590 W Ridge Rd Ste 12",
        "lat": 43.21096,
        "lon": -77.69818
    },
    {
        "name": "RUYI SPA",
        "address": "70-A Jerusalem Ave",
        "lat": 40.76529,
        "lon": -73.52481
    },
    {
        "name": "LITTLE LAKE SPA",
        "address": "245-12 Horace Harding Expy",
        "lat": 40.7597,
        "lon": -73.73297
    },
    {
        "name": "ANGEL TOUCH NYC",
        "address": "2 Allen St New",
        "lat": 40.75192,
        "lon": -73.6717
    },
    {
        "name": "ABC SPA",
        "address": "3850B Nostrand Ave",
        "lat": 40.59012,
        "lon": -73.94016
    },
    {
        "name": "IN SPA",
        "address": "1207 U.S. 9",
        "lat": 41.56991,
        "lon": -73.9093
    },
    {
        "name": "ORIENTAL MASSAGE",
        "address": "1128 Morton Blvd",
        "lat": 41.96333,
        "lon": -73.99242
    },
    {
        "name": "TAI CHI BACK MASSAGE",
        "address": "216 E 6th Street",
        "lat": 40.72778,
        "lon": -73.99
    },
    {
        "name": "NYBODYLOVE",
        "address": "220 E 78th ST",
        "lat": 40.77317,
        "lon": -73.95701
    },
    {
        "name": "203 WELLNESS SPA",
        "address": "203w 91st St",
        "lat": 40.79128,
        "lon": -73.97306
    },
    {
        "name": "BLUE SPA",
        "address": "25 Broadway",
        "lat": 40.68184,
        "lon": -73.4689
    },
    {
        "name": "ELLITE BODY RUB",
        "address": "E 46th St & 2nd Ave New York",
        "lat": 39.84146,
        "lon": -85.95349
    },
    {
        "name": "GREEN DAY SPA",
        "address": "515 N. State Rd.",
        "lat": 41.16366,
        "lon": -73.82357
    },
    {
        "name": "JADE SPA",
        "address": "17 W 45th St",
        "lat": 40.75597,
        "lon": -73.98033
    },
    {
        "name": "NURU MODELS",
        "address": "66 E 34th St",
        "lat": 40.74698,
        "lon": -73.98212
    },
    {
        "name": "SPA",
        "address": "39-25 bell Blvd 2nd floor",
        "lat": 40.76488,
        "lon": -73.77132
    },
    {
        "name": "Y & B HEALTHY SPA",
        "address": "514A Broadway",
        "lat": 40.66639,
        "lon": -73.47105
    },
    {
        "name": "SPA GRAND",
        "address": "590 Merrick Rd",
        "lat": 40.65351,
        "lon": -73.61919
    },
    {
        "name": "DREAM SPA",
        "address": "799 Lexington ave , 2A",
        "lat": 40.76389,
        "lon": -73.96673
    },
    {
        "name": "CANDLA SPA",
        "address": "7 Division St",
        "lat": 40.90778,
        "lon": -73.78243
    },
    {
        "name": "SHUNSHINE SPA",
        "address": "154 Commack Rd",
        "lat": 40.83857,
        "lon": -73.29381
    },
    {
        "name": "SEA STAR SPA",
        "address": "33-17 Farrington st",
        "lat": 40.76633,
        "lon": -73.83212
    },
    {
        "name": "SWEET GIRL MASSAGE",
        "address": "169-14 Crocheron Ave",
        "lat": 40.76265,
        "lon": -73.79658
    },
    {
        "name": "WOOD HOUSE SPA CENTER",
        "address": "543 E 6th St",
        "lat": 40.72477,
        "lon": -73.98188
    },
    {
        "name": "CORAL ESSEX SPA",
        "address": "123 Essex St. 2FL",
        "lat": 40.71974,
        "lon": -73.9878
    },
    {
        "name": "UPTOWN GIRLS NYC",
        "address": "E 97th Street",
        "lat": 40.78598,
        "lon": -73.94908
    },
    {
        "name": "CROWN SPA",
        "address": "397 Palmer Avenue 1st Floor",
        "lat": 40.94897,
        "lon": -73.73885
    },
    {
        "name": "EVOLVE SPA",
        "address": "831 Middle Country Road",
        "lat": 40.8839,
        "lon": -72.94068
    },
    {
        "name": "HOUSE SPA",
        "address": "8 Avenue 47 Street 814?",
        "lat": 40.63775,
        "lon": -74.00721
    },
    {
        "name": "HUA KANG BEST QI GONG YUI-NA",
        "address": "4777a Braodway",
        "lat": 40.86597,
        "lon": -73.92668
    },
    {
        "name": "NEW CHERRY SPA",
        "address": "28-09 Ditmars Blvd",
        "lat": 40.77722,
        "lon": -73.91191
    },
    {
        "name": "NOBLE SPA",
        "address": "158 Summerfield Street",
        "lat": 40.97723,
        "lon": -73.80438
    },
    {
        "name": "PRO SPA",
        "address": "34 W 46th St",
        "lat": 40.75652,
        "lon": -73.98084
    },
    {
        "name": "QQ RELAXATION SPA",
        "address": "330 Northern Lights Plaza.",
        "lat": 43.11181,
        "lon": -76.14351
    },
    {
        "name": "SEVEN STAR",
        "address": "34 W 37th St",
        "lat": 40.75085,
        "lon": -73.985
    },
    {
        "name": "TRANQUILITY SPA",
        "address": "6789 Main St",
        "lat": 42.97346,
        "lon": -78.71361
    },
    {
        "name": "GARDENS IN ART SPA",
        "address": "484 glen st",
        "lat": 43.31604,
        "lon": -73.65413
    },
    {
        "name": "CENTURE SPA",
        "address": "611 NY-17K",
        "lat": 41.52542,
        "lon": -74.1534
    },
    {
        "name": "RELAXING SPA PALACE",
        "address": "331 Grand St",
        "lat": 40.71689,
        "lon": -73.99038
    },
    {
        "name": "WELLNESS REFLEXOLOGY & MASSAGE CENTER",
        "address": "145 Kisco Ave",
        "lat": 41.21413,
        "lon": -73.72581
    },
    {
        "name": "KIMBERLY SPA",
        "address": "28 Elizabeth St",
        "lat": 40.71622,
        "lon": -73.99699
    },
    {
        "name": "SILVER STAR SPA",
        "address": "6 W 48th St",
        "lat": 40.75739,
        "lon": -73.97885
    },
    {
        "name": "CHELSEA BODY WORK",
        "address": "289 7th Avenue, Manhattan",
        "lat": 40.74616,
        "lon": -73.99382
    },
    {
        "name": "FOREST SPA",
        "address": "77-22 164th Street",
        "lat": 40.72375,
        "lon": -73.80515
    },
    {
        "name": "NEW PERFECT SPA INC",
        "address": "141 W 41st St, 2nd Floor",
        "lat": 40.75492,
        "lon": -73.98597
    },
    {
        "name": "HERBAL THERAPY SPA",
        "address": "42-12 30th Ave,",
        "lat": 40.7628,
        "lon": -73.91309
    },
    {
        "name": "HILLCREST HEAVEN SPA",
        "address": "301 N Main St",
        "lat": 41.13,
        "lon": -74.0413
    },
    {
        "name": "ONE SPA",
        "address": "2112 Coney Island Ave",
        "lat": 40.60576,
        "lon": -73.962
    },
    {
        "name": "ZEN SPA",
        "address": "286 McGuiness Blvd",
        "lat": 40.73201,
        "lon": -73.95158
    },
    {
        "name": "TOP GIRL",
        "address": "350 West 40th Street",
        "lat": 40.75675,
        "lon": -73.99317
    },
    {
        "name": "ELEGANT ASIAN SPA",
        "address": "1317 Route 59",
        "lat": 41.09251,
        "lon": -73.92979
    },
    {
        "name": "K-SPA",
        "address": "251-30 northern blvd",
        "lat": 40.76946,
        "lon": -73.73609
    },
    {
        "name": "ATHENA SPA",
        "address": "189 Islip Ave",
        "lat": 40.73712,
        "lon": -73.20766
    },
    {
        "name": "WELLNESS LEISURE SPA",
        "address": "2127 Hillside Ave",
        "lat": 40.7518,
        "lon": -73.67231
    },
    {
        "name": "BELLA SPA",
        "address": "60 W 45th St",
        "lat": 40.7563,
        "lon": -73.98188
    },
    {
        "name": "FORTUNA SPA",
        "address": "7712 17th Ave",
        "lat": 40.61352,
        "lon": -74.00004
    },
    {
        "name": "MADISON ASIAN GALS",
        "address": "420 Madison Ave",
        "lat": 40.75701,
        "lon": -73.97651
    },
    {
        "name": "ASIAN SPA",
        "address": "59 Berry Hill Rd",
        "lat": 40.82806,
        "lon": -73.5026
    },
    {
        "name": "BEST CHINESE BODYWORK",
        "address": "1615 2nd Ave",
        "lat": 40.77652,
        "lon": -73.95306
    },
    {
        "name": "BLUE DAY SPA",
        "address": "717 2nd Ave.",
        "lat": 40.74779,
        "lon": -73.97409
    },
    {
        "name": "KISS KISS POP",
        "address": "35 W 43rd St.",
        "lat": 40.75509,
        "lon": -73.98198
    },
    {
        "name": "PRO SPA",
        "address": "2042 Central Park Ave",
        "lat": 40.96801,
        "lon": -73.8369
    },
    {
        "name": "SHENGRI LA SPA",
        "address": "740 N Bedford Rd",
        "lat": 41.22446,
        "lon": -73.7139
    },
    {
        "name": "SPA 34 INC",
        "address": "64 E 34th St 2nd Floor",
        "lat": 40.74706,
        "lon": -73.98203
    },
    {
        "name": "SPA THERAPY",
        "address": "10 Union Ave, Suite 7",
        "lat": 40.65368,
        "lon": -73.67192
    },
    {
        "name": "YUN SPA",
        "address": "133-16 41st Rd #2R",
        "lat": null,
        "lon": null
    },
    {
        "name": "DIVINE DAY SPA",
        "address": "303 5th Ave 5th Floor",
        "lat": 40.74646,
        "lon": -73.98544
    },
    {
        "name": "PRETTY SPA",
        "address": "94-05 Astoria Blvd",
        "lat": 40.76319,
        "lon": -73.87501
    },
    {
        "name": "YING SPA",
        "address": "212 West 71st Street",
        "lat": 40.77809,
        "lon": -73.98297
    },
    {
        "name": "LAVENDER BODYWORK",
        "address": "24 Grand Ave",
        "lat": 40.80322,
        "lon": -72.86464
    },
    {
        "name": "SUNFLOWER SPA",
        "address": "161\u00a0Madison\u00a0Ave\u00a03Fl New\u00a0York\u00a0NY\u00a010016",
        "lat": 40.74676,
        "lon": -73.98335
    },
    {
        "name": "SUN JOY SPA",
        "address": "150 E 46th St",
        "lat": 40.75352,
        "lon": -73.97354
    },
    {
        "name": "VIVI BODY SPA",
        "address": "684 6th Ave Fl 2",
        "lat": 40.74182,
        "lon": -73.99317
    },
    {
        "name": "FOXY BODYWORK SPA",
        "address": "38 W 38th St 2nd Fl",
        "lat": 40.75149,
        "lon": -73.9846
    },
    {
        "name": "SPRING SPA",
        "address": "1205 Bay Rd",
        "lat": 43.19325,
        "lon": -77.50709
    },
    {
        "name": "BEAUTY ISLAND SPA",
        "address": "35-25 Farrington St.",
        "lat": 40.76371,
        "lon": -73.83117
    },
    {
        "name": "ANGEL WINGS LOVE SPA",
        "address": "40-30 149th Pl",
        "lat": 40.76255,
        "lon": -73.81509
    },
    {
        "name": "GINA DM SPA INC",
        "address": "307 E Main St",
        "lat": 43.03473,
        "lon": -75.06554
    },
    {
        "name": "MOON STARS SPA",
        "address": "336 North Midler Ave",
        "lat": 43.07504,
        "lon": -76.10525
    },
    {
        "name": "OASIS WELLNESS SPA",
        "address": "1607 W. Genesee St.",
        "lat": 43.0521,
        "lon": -76.18602
    },
    {
        "name": "STAR SPA",
        "address": "33-15 34th Avenue",
        "lat": 40.75883,
        "lon": -73.92498
    },
    {
        "name": "LEE 91 SPA",
        "address": "1377 Lexington Avenuw",
        "lat": 40.78241,
        "lon": -73.95323
    },
    {
        "name": "SHAO HEALTH SPA",
        "address": "27111 Union Turnpike",
        "lat": 40.7522,
        "lon": -73.70296
    },
    {
        "name": "WALL STREET BODY RUB",
        "address": "Nassau Street",
        "lat": 40.7096,
        "lon": -74.00843
    },
    {
        "name": "HAO SPA",
        "address": "642 Old Liverpool Rd",
        "lat": 43.09284,
        "lon": -76.19308
    },
    {
        "name": "QUEEN'S SPA",
        "address": "366 Grant Blvd",
        "lat": 43.07196,
        "lon": -76.12068
    },
    {
        "name": "RED DOOR SPA",
        "address": "454 New York Ave",
        "lat": 40.86686,
        "lon": -73.42362
    },
    {
        "name": "JI LI TUI NA CENTER",
        "address": "801 Lexington Ave",
        "lat": 40.76391,
        "lon": -73.96664
    },
    {
        "name": "THE LOTUS SPA",
        "address": "771A Yonkers Ave",
        "lat": 40.92276,
        "lon": -73.86383
    },
    {
        "name": "RELAXATION SPA",
        "address": "3028 Brighton-Henrietta Town Line Road Suite Rochester,NY 14623",
        "lat": 43.09546,
        "lon": -77.59437
    },
    {
        "name": "SPA 54",
        "address": "54 N Central Ave, Suite 2",
        "lat": 41.05662,
        "lon": -73.81746
    },
    {
        "name": "NANCY SPA",
        "address": "43-13 Bell blvd",
        "lat": 40.76103,
        "lon": -73.76951
    },
    {
        "name": "HONEY GIRL SPA",
        "address": "300 W 56th St, 3rd Floor",
        "lat": 40.76605,
        "lon": -73.9837
    },
    {
        "name": "PURE DESIRE SPA",
        "address": "45-12 Parson Blvd",
        "lat": 40.75528,
        "lon": -73.81552
    },
    {
        "name": "SPA BISOU",
        "address": "22 Beaver St",
        "lat": 40.70482,
        "lon": -74.01219
    },
    {
        "name": "SOOTHING DAY SPA",
        "address": "271 North Ave",
        "lat": 40.91196,
        "lon": -73.78214
    },
    {
        "name": "AMNITY SPA",
        "address": "222 west 72nd street",
        "lat": 40.77887,
        "lon": -73.98297
    },
    {
        "name": "TROPICAL SPA",
        "address": "727 4th Avenue",
        "lat": 40.66112,
        "lon": -73.99704
    },
    {
        "name": "PERFECT SPA",
        "address": "24 Crisfield St",
        "lat": 40.97528,
        "lon": -73.83125
    },
    {
        "name": "BABYLON SPA",
        "address": "1030 6th Ave",
        "lat": 40.75256,
        "lon": -73.98541
    },
    {
        "name": "MERRY SPA",
        "address": "9429 Merrick Blvd",
        "lat": 40.7032,
        "lon": -73.79176
    },
    {
        "name": "SAKURA RELAXATION BODYWORK",
        "address": "675 Main St",
        "lat": 42.18833,
        "lon": -76.00437
    },
    {
        "name": "LEE SPA",
        "address": "252 E 62nd St",
        "lat": 40.76248,
        "lon": -73.96346
    },
    {
        "name": "L.C.BEAUTY",
        "address": "4014 Hylan Blvd",
        "lat": 40.54158,
        "lon": -74.14611
    },
    {
        "name": "TOKYO HEALTH SPA",
        "address": "23-01 41st Ave",
        "lat": 40.75307,
        "lon": -73.94025
    },
    {
        "name": "NURU GIRLS",
        "address": "5th avenue and 28th street floor3",
        "lat": 40.74469,
        "lon": -73.9873
    },
    {
        "name": "SEASONS SPA",
        "address": "171-69 46th Ave",
        "lat": 40.75367,
        "lon": -73.79383
    },
    {
        "name": "QI GONG TUI NA BACK & FOOT RUB",
        "address": "230 E 29st",
        "lat": 40.74182,
        "lon": -73.97899
    },
    {
        "name": "NYC 5 STAR BODYWORK",
        "address": "11 Maiden Ln 2nd Flr",
        "lat": 40.70956,
        "lon": -74.00928
    },
    {
        "name": "LUV YU FOOT MASSAGE",
        "address": "975 Ridge Rd Ste 3",
        "lat": 43.20791,
        "lon": -77.46174
    },
    {
        "name": "SOPHIA NATURAL SPA",
        "address": "501 E Boston Post Rd",
        "lat": 40.9509,
        "lon": -73.72885
    },
    {
        "name": "KIMOCHI SPA",
        "address": "360 W. Ridge Rd",
        "lat": 43.19983,
        "lon": -77.63657
    },
    {
        "name": "ROSE SPA",
        "address": "354 Great Neck Rd",
        "lat": 40.77898,
        "lon": -73.73177
    },
    {
        "name": "ROSE SPA",
        "address": "7620 3rd Ave Brooklyn, NY 11209",
        "lat": 40.63029,
        "lon": -74.02853
    },
    {
        "name": "SAMSUN SPA",
        "address": "29 John St Lower Level",
        "lat": 40.70977,
        "lon": -74.009
    },
    {
        "name": "SIMPLE RELAX SPA",
        "address": "213-37 40th Ave",
        "lat": 40.76451,
        "lon": -73.77095
    },
    {
        "name": "SUNNY SKIN CARE & SPA",
        "address": "97 A Lincoln Avenue",
        "lat": 40.57992,
        "lon": -74.10926
    },
    {
        "name": "CITY PLUS SPA",
        "address": "48 W 46th St 5thFL",
        "lat": 40.75682,
        "lon": -73.98113
    },
    {
        "name": "PEACH XXX SPA",
        "address": "48 West 46th Street 5th Fl",
        "lat": 40.75682,
        "lon": -73.98113
    },
    {
        "name": "CRYSTAL FA SPA INC.",
        "address": "3480 Oneida St. Suite 9",
        "lat": 43.03125,
        "lon": -75.27369
    },
    {
        "name": "HEALING TOUCH",
        "address": "37 Elm St #4",
        "lat": null,
        "lon": null
    },
    {
        "name": "HEAVEN SPA",
        "address": "15 W 17th St",
        "lat": 40.73849,
        "lon": -73.99313
    },
    {
        "name": "PAPAYA SPA",
        "address": "125 Fulton St, 2nd Floor",
        "lat": 40.71021,
        "lon": -74.00718
    },
    {
        "name": "NICE DAY SPA",
        "address": "9 Bert Crawford Rd.",
        "lat": 41.45705,
        "lon": -74.38445
    },
    {
        "name": "HEALTHY AMAZING SPA",
        "address": "435 East 86th St",
        "lat": 40.77656,
        "lon": -73.9479
    },
    {
        "name": "LAO YU'S BODY SPA",
        "address": "196 2nd Ave",
        "lat": 40.73102,
        "lon": -73.98553
    },
    {
        "name": "RIO GRANDE BACK & FOOT RUB",
        "address": "179A Grand St",
        "lat": 40.71936,
        "lon": -73.99795
    },
    {
        "name": "ALL SEASONS BODY WORK",
        "address": "594 9th Ave Fl 1",
        "lat": 40.75876,
        "lon": -73.99208
    },
    {
        "name": "HAPPY FEET SPA",
        "address": "626 Park Ave Ste 2",
        "lat": 43.14864,
        "lon": -77.57877
    },
    {
        "name": "ORIENTAL EXPRESS SPA",
        "address": "237 W. 14th Street",
        "lat": 40.73943,
        "lon": -74.00108
    },
    {
        "name": "SINCERE QIGONG TUI-NA INC",
        "address": "203 W 85th St, Suite 2303",
        "lat": 40.78737,
        "lon": -73.97583
    },
    {
        "name": "ZUYISPA",
        "address": "171 Canal St St 203",
        "lat": 40.71685,
        "lon": -73.99713
    },
    {
        "name": "DIAMOND SPA",
        "address": "36-20 30th Ave Fl 2",
        "lat": 40.76455,
        "lon": -73.91686
    },
    {
        "name": "KIN BODY WORKS",
        "address": "3600 E Main St",
        "lat": 42.10735,
        "lon": -76.01474
    },
    {
        "name": "NY HEALTH SPA",
        "address": "5 W 37th St",
        "lat": 40.75087,
        "lon": -73.98397
    },
    {
        "name": "METROGIRLS NYC",
        "address": "West 56th St",
        "lat": 40.76662,
        "lon": -73.98469
    },
    {
        "name": "CRYSTAL LOVE SPA",
        "address": "242 E 71st St",
        "lat": 40.76814,
        "lon": -73.95943
    },
    {
        "name": "GREEN MASSAGE",
        "address": "26 W. 37th St., Suite 2A",
        "lat": 40.75074,
        "lon": -73.98467
    },
    {
        "name": "J & Y NY SPA",
        "address": "8 Boston Place",
        "lat": 40.82694,
        "lon": -73.41253
    },
    {
        "name": "ORIENTAL OASIS 78",
        "address": "443 E 78th St",
        "lat": 40.77118,
        "lon": -73.95138
    },
    {
        "name": "ROCKY POINT FOOT SPA",
        "address": "379 route 25A  unit G",
        "lat": 40.94625,
        "lon": -72.94121
    },
    {
        "name": "APPLE SPA",
        "address": "150 Northern Blvd",
        "lat": 40.76547,
        "lon": -73.81492
    },
    {
        "name": "GRAND ELEGANT SPA",
        "address": "246 Grand St.",
        "lat": 40.71844,
        "lon": -73.9941
    },
    {
        "name": "LUCKY TREE SPA",
        "address": "1275 Erie Ave",
        "lat": 43.05138,
        "lon": -78.84659
    },
    {
        "name": "36 DREAM SPA",
        "address": "153 W 36th St #2fl",
        "lat": null,
        "lon": null
    },
    {
        "name": "GOLDEN DREAM SPA",
        "address": "503 W 47th St",
        "lat": 40.76314,
        "lon": -73.99359
    },
    {
        "name": "MASSAGE QUEENS",
        "address": "43-46 162nd St",
        "lat": 40.75742,
        "lon": -73.8046
    },
    {
        "name": "OASIS SPA",
        "address": "173 Main Street",
        "lat": 41.16154,
        "lon": -73.86233
    },
    {
        "name": "WEST GARDEN SPA",
        "address": "243 W 30th St",
        "lat": 40.74937,
        "lon": -73.99386
    },
    {
        "name": "OSAKA SPA",
        "address": "226 E 51st St",
        "lat": 40.75584,
        "lon": -73.96931
    },
    {
        "name": "ISLAND SPA CLUB",
        "address": "19 Bridge St. 2F",
        "lat": 40.86361,
        "lon": -73.63173
    },
    {
        "name": "MAIN ST SPA",
        "address": "241 Main St",
        "lat": 41.20184,
        "lon": -73.7256
    },
    {
        "name": "AG MASSAGE TREATMENT",
        "address": "331 French Rd",
        "lat": 43.0999,
        "lon": -77.53768
    },
    {
        "name": "DREAMLY SPA",
        "address": "87-4 117th St",
        "lat": 40.69909,
        "lon": -73.83253
    },
    {
        "name": "THE ONE NY SPA",
        "address": "201-01 Northern Blvd Flushing, NY 11361",
        "lat": 40.75786,
        "lon": -73.78219
    },
    {
        "name": "LOTUS SPA",
        "address": "116 Eldridge Street",
        "lat": 40.71822,
        "lon": -73.99175
    },
    {
        "name": "YUAN SPA",
        "address": "135-32 39 Ave",
        "lat": 40.75995,
        "lon": -73.83117
    },
    {
        "name": "INO SPA",
        "address": "100 St Marks Pl",
        "lat": 40.72716,
        "lon": -73.98475
    },
    {
        "name": "A & A SPA",
        "address": "357 Windsor Hwy",
        "lat": 41.46042,
        "lon": -74.05311
    },
    {
        "name": "GARDEN SPA",
        "address": "2353 coney Island ave",
        "lat": 40.59959,
        "lon": -73.9611
    },
    {
        "name": "NEW PALACE SPA",
        "address": "116 S Central Ave 2nd Fl",
        "lat": 41.0512,
        "lon": -73.82175
    },
    {
        "name": "SUNSHINE HEALTH",
        "address": "W 35th & 7th Ave",
        "lat": null,
        "lon": null
    },
    {
        "name": "36 DREAM SPA",
        "address": "155 W 36th St",
        "lat": 40.7521,
        "lon": -73.98903
    },
    {
        "name": "SANG YUAN BODY WORKS",
        "address": "225 E 83rd St",
        "lat": 40.77651,
        "lon": -73.95405
    },
    {
        "name": "GOOD GIRLS",
        "address": "872 6th Avenue",
        "lat": 40.74763,
        "lon": -73.989
    },
    {
        "name": "LU LU ASIAN MASSAGE",
        "address": "113-19 Liberty Ave 2FL",
        "lat": 40.68581,
        "lon": -73.82887
    },
    {
        "name": "ANGEL SPA",
        "address": "180-04 Union Tkpe",
        "lat": 40.72678,
        "lon": -73.78772
    },
    {
        "name": "EASTERN ZEN SPA - TROY",
        "address": "17 State Street",
        "lat": 42.73426,
        "lon": -73.58297
    },
    {
        "name": "EDEN DAY SPA",
        "address": "388 Broadway & Walker St",
        "lat": 40.71819,
        "lon": -74.00272
    },
    {
        "name": "A SPA",
        "address": "303 5th Ave suite #1306",
        "lat": null,
        "lon": null
    },
    {
        "name": "S WELLNESS SPA",
        "address": "985A S Clinton Ave",
        "lat": 43.13903,
        "lon": -77.59564
    },
    {
        "name": "A - ZEN SPA",
        "address": "41 W 47th St",
        "lat": 40.75774,
        "lon": -73.98051
    },
    {
        "name": "NEW RAINBOW SPA",
        "address": "13 East 37th Street",
        "lat": 40.75009,
        "lon": -73.98218
    },
    {
        "name": "HEALTH AMAZING SPA",
        "address": "1109 Lexington Ave",
        "lat": 40.7738,
        "lon": -73.95945
    },
    {
        "name": "RENEW YORK SPA",
        "address": "797 8th Ave Fl 2",
        "lat": 40.76131,
        "lon": -73.98708
    },
    {
        "name": "SUNNY SERVICE",
        "address": "137 Rivington St",
        "lat": 40.71939,
        "lon": -73.98642
    },
    {
        "name": "WANG JIAO SPA",
        "address": "70 Bayard St.",
        "lat": 40.71565,
        "lon": -73.99814
    },
    {
        "name": "CANAL STREET BODYWORK",
        "address": "51 Canal St",
        "lat": 40.71496,
        "lon": -73.99164
    },
    {
        "name": "JUVENEX SPA",
        "address": "25 W 32nd St",
        "lat": 40.74788,
        "lon": -73.98681
    },
    {
        "name": "MAIDEN HEALTH SPA",
        "address": "1 Maiden Lane",
        "lat": 40.70983,
        "lon": -74.00968
    },
    {
        "name": "NUMBER 1 SPA",
        "address": "33 1st ave & 2nd street",
        "lat": 40.72411,
        "lon": -73.98812
    },
    {
        "name": "SNOWFLAKE SPA",
        "address": "324 west 49th street",
        "lat": 40.76203,
        "lon": -73.98813
    },
    {
        "name": "SPRING GARDEN SPA 8",
        "address": "30 Ann Street",
        "lat": 40.71065,
        "lon": -74.00768
    },
    {
        "name": "SUNSHINE HOT STONE MASSAGE",
        "address": "4 Park Place",
        "lat": 40.67946,
        "lon": -73.97802
    },
    {
        "name": "HUA XIA CHINESE QIGONG TUI NA",
        "address": "305 Amsterdam Avenue",
        "lat": 40.78006,
        "lon": -73.98031
    },
    {
        "name": "VIP BODYWORK",
        "address": "46 w 46 st 3rd floor",
        "lat": 40.75682,
        "lon": -73.98112
    },
    {
        "name": "MEI SPA",
        "address": "170 NY-52",
        "lat": 41.43483,
        "lon": -73.68011
    },
    {
        "name": "A\u2019S BODY WORKS",
        "address": "875 3rd Ave Fl 2, Rm M105",
        "lat": 40.75939,
        "lon": -73.96978
    },
    {
        "name": "SPA 7 AVENUE",
        "address": "474 7th ave.  3rd floor",
        "lat": 40.75219,
        "lon": -73.9901
    },
    {
        "name": "EMPIRE LAKE SPA",
        "address": "14-09 150th Street",
        "lat": 40.7885,
        "lon": -73.81349
    },
    {
        "name": "HEALTHY FOOT CARE",
        "address": "1694 Penfield Rd",
        "lat": 43.13074,
        "lon": -77.48714
    },
    {
        "name": "GREEN MASSAGE SPA",
        "address": "243 W 38th St,2FL",
        "lat": 40.75436,
        "lon": -73.9902
    },
    {
        "name": "RAIN SPA",
        "address": "28-11 Astoria Blvd",
        "lat": 40.77084,
        "lon": -73.92033
    },
    {
        "name": "SUN SPA 64 INC",
        "address": "64 Broad St",
        "lat": 42.79016,
        "lon": -73.67878
    },
    {
        "name": "RIVER SPA",
        "address": "210 W 35th St #3A",
        "lat": null,
        "lon": null
    },
    {
        "name": "TELL MAMA CHINESE HEALTH SALON",
        "address": "238 E 6th St",
        "lat": 40.72749,
        "lon": -73.98903
    },
    {
        "name": "A SPA",
        "address": "190 Dyckmam St",
        "lat": 40.86465,
        "lon": -73.92688
    },
    {
        "name": "GARDEN RETREAT SPA",
        "address": "253 5th Ave, 2nd Floor",
        "lat": 40.74477,
        "lon": -73.98702
    },
    {
        "name": "HEAVEN SPA",
        "address": "1070 Route 9 suite 101a",
        "lat": 41.56145,
        "lon": -73.90277
    },
    {
        "name": "JOY SPRING SPA",
        "address": "143E 57th",
        "lat": 40.76486,
        "lon": -73.97916
    },
    {
        "name": "THE WARM SPA",
        "address": "253 Tower Drive",
        "lat": 41.47033,
        "lon": -74.38303
    },
    {
        "name": "KING MASSAGE SPA",
        "address": "25-44 Steinway",
        "lat": 40.76693,
        "lon": -73.91278
    },
    {
        "name": "YAN SPA",
        "address": "55b Broadway Hicksville",
        "lat": 40.76832,
        "lon": -73.52432
    },
    {
        "name": "SWAN BEAUTY SPA",
        "address": "364 North Ave",
        "lat": 40.91434,
        "lon": -73.78458
    },
    {
        "name": "MATCHA BODY WELLNESS SPA",
        "address": "7004 Fort Hamilton Parkway",
        "lat": 40.62823,
        "lon": -74.01322
    },
    {
        "name": "211 SPA",
        "address": "731 NY-211",
        "lat": 41.46661,
        "lon": -74.3576
    },
    {
        "name": "INTERNATIONAL RELAXATION",
        "address": "890 Atlantic Ave.",
        "lat": 40.68102,
        "lon": -73.96539
    },
    {
        "name": "K SWEET BODY WORK",
        "address": "175 Sound Beach Blvd",
        "lat": 40.95672,
        "lon": -72.96723
    },
    {
        "name": "LONG TENG II MASSAGE SPA",
        "address": "239 W 105th St Fl 1",
        "lat": 40.80055,
        "lon": -73.96755
    },
    {
        "name": "MAYS BEAUTY SALON",
        "address": "295 Broome Street",
        "lat": 40.71849,
        "lon": -73.99212
    },
    {
        "name": "TAO BEST SPA",
        "address": "1673 Route 9",
        "lat": 42.86015,
        "lon": -73.76387
    },
    {
        "name": "THE BEST BODYWORK",
        "address": "1 Bay Ave",
        "lat": 40.76612,
        "lon": -73.00571
    },
    {
        "name": "OASIS SPA",
        "address": "117 W Main Street",
        "lat": 40.7306,
        "lon": -73.19634
    },
    {
        "name": "RELAXATION ZONE",
        "address": "2412 Chili Ave",
        "lat": 43.12856,
        "lon": -77.69817
    },
    {
        "name": "AAR SPA",
        "address": "512 5th Ave",
        "lat": 40.75422,
        "lon": -73.9809
    },
    {
        "name": "DAY SPA GATA",
        "address": "107 W 82nd St, Suite 105",
        "lat": 40.78426,
        "lon": -73.97451
    },
    {
        "name": "SERENITY PALACE SPA & BODYWORK",
        "address": "69 Lafayette Ave 2F",
        "lat": 40.68733,
        "lon": -73.97578
    },
    {
        "name": "VANILLA SPA",
        "address": "40-24 162nd St 2Fl",
        "lat": 40.76194,
        "lon": -73.80394
    },
    {
        "name": "WM SPA",
        "address": "216B W 30th St",
        "lat": 40.74876,
        "lon": -73.99338
    },
    {
        "name": "RELAX SPA",
        "address": "406 W 52nd St #2FL",
        "lat": null,
        "lon": null
    },
    {
        "name": "BODY VITAL FOOT SPA",
        "address": "1425 Jefferson Rd Ste 7",
        "lat": 43.08653,
        "lon": -77.59149
    },
    {
        "name": "MOTT SPA",
        "address": "5 Mott Street",
        "lat": 40.71386,
        "lon": -73.99886
    },
    {
        "name": "DEEYEE CHINESE THERAPY",
        "address": "152 Mott St. (B)",
        "lat": 40.71928,
        "lon": -73.99629
    },
    {
        "name": "MAGIC HANDS MASSAGE",
        "address": "214 East 82nd Street",
        "lat": 40.77581,
        "lon": -73.9552
    },
    {
        "name": "SHUNFA RELAXING CENTER",
        "address": "59 W 8th St",
        "lat": 40.73353,
        "lon": -73.99896
    },
    {
        "name": "KANGXIN FOOT SPA",
        "address": "531 E Ridge Road",
        "lat": 43.19511,
        "lon": -77.60432
    },
    {
        "name": "KING SPA",
        "address": "12-49 150th street",
        "lat": 40.78939,
        "lon": -73.81376
    },
    {
        "name": "RENEW DAY SPA",
        "address": "10 Bowery 2nd floor",
        "lat": 40.71442,
        "lon": -73.99761
    },
    {
        "name": "ZENITH ELEGANCE SPA",
        "address": "32-55 Francis Lewis Blvd",
        "lat": 40.76808,
        "lon": -73.79068
    },
    {
        "name": "AURA WELLNESS SPA",
        "address": "49 W 33rd St",
        "lat": 40.74883,
        "lon": -73.98729
    },
    {
        "name": "GALAXY SPA",
        "address": "28-52 42nd Street",
        "lat": 40.76337,
        "lon": -73.911
    },
    {
        "name": "CHINESE REFLEXOLOGY",
        "address": "3009 Westchester Ave",
        "lat": 40.84752,
        "lon": -73.83194
    },
    {
        "name": "TAIJI BODY WORK PENG'S MASSAGE",
        "address": "889 9th Ave",
        "lat": 40.76849,
        "lon": -73.98576
    },
    {
        "name": "SERENITY SPA",
        "address": "3212 Erie Blvd E",
        "lat": 43.0515,
        "lon": -76.07416
    },
    {
        "name": "ZHONG GUO FEET SPA",
        "address": "28 Fuller Rd.",
        "lat": 42.7017,
        "lon": -73.81859
    },
    {
        "name": "BODYWORK",
        "address": "740 Broadway",
        "lat": 40.7298,
        "lon": -73.99269
    },
    {
        "name": "MOON SPA",
        "address": "729 Delafield Ave,",
        "lat": 40.62947,
        "lon": -74.12292
    },
    {
        "name": "SAKURA SPA",
        "address": "4306 Main St Fl 2",
        "lat": 40.75228,
        "lon": -73.82704
    },
    {
        "name": "KOREAN MASSAGE",
        "address": "255-12 Hillside Ave",
        "lat": 40.73625,
        "lon": -73.71236
    },
    {
        "name": "MOM SPA",
        "address": "371 Mamaroneck Ave",
        "lat": 41.02401,
        "lon": -73.76243
    },
    {
        "name": "RAIN SPA",
        "address": "219 E 89th St",
        "lat": 40.78041,
        "lon": -73.95139
    },
    {
        "name": "SEVEN SPA",
        "address": "204 E 60th St 2nd Floor",
        "lat": 40.76189,
        "lon": -73.96575
    },
    {
        "name": "YAN MEI",
        "address": "188 Hester S",
        "lat": 40.72179,
        "lon": -74.00945
    },
    {
        "name": "NEW MELODY SPA",
        "address": "245 24th St",
        "lat": 40.66129,
        "lon": -73.99767
    },
    {
        "name": "LEE MAX",
        "address": "1755 Ocean Pkwy #LL0",
        "lat": null,
        "lon": null
    },
    {
        "name": "VEGA SPA",
        "address": "675 5th Ave",
        "lat": 40.66167,
        "lon": -73.99277
    },
    {
        "name": "OXYGEN SPA",
        "address": "276 Higbie Lane",
        "lat": 40.71038,
        "lon": -73.30718
    },
    {
        "name": "NAMASTE WELLNESS SPA",
        "address": "198 Orinoco Drive,Brightwaters",
        "lat": 40.72045,
        "lon": -73.2673
    },
    {
        "name": "Q BOBO SPA",
        "address": "214-55 Jamaica Ave",
        "lat": 40.71706,
        "lon": -73.74205
    },
    {
        "name": "CUP OF THAI",
        "address": "48th Street & 8th Avenue",
        "lat": 33.95829,
        "lon": -84.30405
    },
    {
        "name": "JOY SPA",
        "address": "16 E 48th St, 3rd Floor",
        "lat": 40.75665,
        "lon": -73.97719
    },
    {
        "name": "ENERGYMENSPA",
        "address": "265 w 23rd st",
        "lat": 40.7452,
        "lon": -73.99768
    },
    {
        "name": "HEALTH SPA",
        "address": "155 W 83rd Street",
        "lat": 40.78546,
        "lon": -73.97522
    },
    {
        "name": "XIN XIN WELLNESS SPA",
        "address": "684 Old Liverpool Rd #5",
        "lat": null,
        "lon": null
    },
    {
        "name": "ORIENT COLLECTIONS FOOT SPA",
        "address": "1151 Hempstead Turnpike",
        "lat": 40.708,
        "lon": -73.68285
    },
    {
        "name": "SUN SPA",
        "address": "400 E 87th St",
        "lat": 40.77732,
        "lon": -73.94866
    },
    {
        "name": "TUINA STUDIO",
        "address": "175 E 62nd St 1A",
        "lat": 40.76366,
        "lon": -73.96551
    },
    {
        "name": "7 DAYS SPA",
        "address": "101 Front St",
        "lat": 40.69863,
        "lon": -73.62419
    },
    {
        "name": "3163A ASIAN RELAX SPA",
        "address": "3163 Hylan Blvd",
        "lat": 40.55899,
        "lon": -74.1259
    },
    {
        "name": "COSMOS SPA",
        "address": "2092 NY-302",
        "lat": 41.51474,
        "lon": -74.38783
    },
    {
        "name": "DING MING MASSAGE THERAPY",
        "address": "98 Mott St #6th floor",
        "lat": null,
        "lon": null
    },
    {
        "name": "INUU HEALTH SPA",
        "address": "1556 Myrtle Ave 2fl. M2",
        "lat": 40.69937,
        "lon": -73.91139
    },
    {
        "name": "YANG YANG SPA",
        "address": "1289 Route 9",
        "lat": 41.57646,
        "lon": -73.90996
    },
    {
        "name": "FEIFEI SPA",
        "address": "153-14 Northern Blvd #2FL",
        "lat": null,
        "lon": null
    },
    {
        "name": "GINZA SPA",
        "address": "19 W 46th St New York, NY 10036",
        "lat": 40.75659,
        "lon": -73.98003
    },
    {
        "name": "LOVEBIRDS SPA",
        "address": "34 street park ave",
        "lat": 40.74705,
        "lon": -73.98127
    },
    {
        "name": "PEACH SPA",
        "address": "46 street & 5th Ave",
        "lat": 40.75675,
        "lon": -73.91421
    },
    {
        "name": "HUDSON FAMILY SPA",
        "address": "17 North Ave",
        "lat": 41.74591,
        "lon": -73.82529
    },
    {
        "name": "COCKTAIL SPA",
        "address": "98-71 Queens Blvd",
        "lat": 40.72795,
        "lon": -73.85553
    },
    {
        "name": "67 SPA",
        "address": "67 Eldridge St",
        "lat": 40.71677,
        "lon": -73.99291
    },
    {
        "name": "SUN SPA",
        "address": "58 E 34th St",
        "lat": 40.74723,
        "lon": -73.98216
    },
    {
        "name": "BODY&SKIN SPA",
        "address": "1760 State St",
        "lat": 42.78138,
        "lon": -73.9059
    },
    {
        "name": "SPA J",
        "address": "2980 Webster Ave",
        "lat": 40.86767,
        "lon": -73.88254
    },
    {
        "name": "EUROPEAN SPA",
        "address": "900 Midland ave",
        "lat": 40.93464,
        "lon": -73.85959
    },
    {
        "name": "EUROPEAN MASSAGE",
        "address": "224 Broadway",
        "lat": 40.70899,
        "lon": -73.96067
    },
    {
        "name": "ONE SPA",
        "address": "831 3rd Ave 3rd FL",
        "lat": 40.8088,
        "lon": -73.92999
    },
    {
        "name": "QUEENS SPA",
        "address": "4620 Kissena blvd 2nd floor",
        "lat": 40.75002,
        "lon": -73.81876
    },
    {
        "name": "PINK SPA",
        "address": "219 Havemeyer St",
        "lat": 40.70923,
        "lon": -73.95892
    },
    {
        "name": "HAPPYNESS SPA",
        "address": "355 7th Ave Fl 3",
        "lat": 40.74826,
        "lon": -73.99231
    },
    {
        "name": "JASMINE SPA",
        "address": "31st 35W",
        "lat": 40.75369,
        "lon": -73.99916
    },
    {
        "name": "LUCKY SPA ONE",
        "address": "45-58 43rd Street",
        "lat": 40.74169,
        "lon": -73.922
    },
    {
        "name": "VITAMIN NYC ASIAN SPA",
        "address": "34 W 37th St",
        "lat": 40.75085,
        "lon": -73.985
    },
    {
        "name": "BLUE SEA RELAXING SPA",
        "address": "331 NY-25A Ste12",
        "lat": 40.93469,
        "lon": -73.02422
    },
    {
        "name": "TOP FOOT SPA",
        "address": "755 Grand Street",
        "lat": 40.71191,
        "lon": -73.9429
    },
    {
        "name": "AROMA MASSAGE SPA",
        "address": "3047 W Henrietta Rd",
        "lat": 43.09105,
        "lon": -77.63668
    },
    {
        "name": "GRAND RELAX SPA",
        "address": "34-10 Union St",
        "lat": 40.7699,
        "lon": -73.8272
    },
    {
        "name": "HEAVEN ON EARTH SPA",
        "address": "148 Broadway",
        "lat": 40.66761,
        "lon": -73.41213
    },
    {
        "name": "BLUE SEA SPA",
        "address": "16202 UNION TPKE",
        "lat": 40.72091,
        "lon": -73.8053
    },
    {
        "name": "HY FOOT SPA",
        "address": "109 Manorhaven Blvd",
        "lat": 40.84127,
        "lon": -73.7129
    },
    {
        "name": "SKY SPA",
        "address": "723 3rd Ave.2nd floor",
        "lat": 40.75198,
        "lon": -73.96978
    },
    {
        "name": "GRACE SPA",
        "address": "38 W 31st St. #142",
        "lat": null,
        "lon": null
    },
    {
        "name": "DEJA VU FOOT SPA",
        "address": "1021 Portion Rd #8",
        "lat": null,
        "lon": null
    },
    {
        "name": "SMILE SPA/ASIAN MASSAGE",
        "address": "2668 Hamburg St",
        "lat": 42.77723,
        "lon": -73.93403
    },
    {
        "name": "EASTERN FOOT SPA",
        "address": "143 Merrick Rd",
        "lat": 40.67097,
        "lon": -73.41683
    },
    {
        "name": "OASIS SPA",
        "address": "400 E 87th St",
        "lat": 40.77732,
        "lon": -73.94866
    },
    {
        "name": "SPA MAI",
        "address": "404 Broadway Lower Level",
        "lat": 40.71877,
        "lon": -74.00213
    },
    {
        "name": "GREEN GARDEN ASIA SPA",
        "address": "46 Columbia St",
        "lat": 42.65194,
        "lon": -73.75021
    },
    {
        "name": "WEST GARDEN SPA",
        "address": "243 W 30th St",
        "lat": 40.74937,
        "lon": -73.99386
    },
    {
        "name": "TANG DYNASTY SPA",
        "address": "322-A W 47th St",
        "lat": 40.76078,
        "lon": -73.98884
    },
    {
        "name": "BODYWORK STATION",
        "address": "690 10th Ave",
        "lat": 40.76354,
        "lon": -73.99226
    },
    {
        "name": "Y&B BODY HEALTH SPA",
        "address": "34 Cold Spring Rd",
        "lat": 40.82579,
        "lon": -73.50122
    },
    {
        "name": "GINA DM SPA",
        "address": "703 Rte 28",
        "lat": null,
        "lon": null
    },
    {
        "name": "MUXI SPA",
        "address": "37 Eldridge St., 4th Fl.",
        "lat": 40.71561,
        "lon": -73.99339
    },
    {
        "name": "BARBER SHOP",
        "address": "444-C Willis Ave",
        "lat": 40.77777,
        "lon": -73.65001
    },
    {
        "name": "ANGEL HANDS WELLNESS",
        "address": "277 1st Ave Fl 2",
        "lat": 40.73264,
        "lon": -73.98201
    },
    {
        "name": "NEW MAY BEAUTY",
        "address": "19B Mott St",
        "lat": 40.71436,
        "lon": -73.99888
    },
    {
        "name": "ASIAN-STARNYC",
        "address": "336 west 49th st",
        "lat": 40.76235,
        "lon": -73.9885
    },
    {
        "name": "GOLDEN TOUCH BODYWORK",
        "address": "3116 Broadway FL2",
        "lat": 40.7595,
        "lon": -73.92716
    },
    {
        "name": "DION SPA",
        "address": "23-08 Jackson Ave",
        "lat": 40.74574,
        "lon": -73.94528
    },
    {
        "name": "A-SPA",
        "address": "13A EIdridge St",
        "lat": 40.71484,
        "lon": -73.99389
    },
    {
        "name": "JM BODY WORK",
        "address": "510 2nd street",
        "lat": 40.6746,
        "lon": -73.98528
    },
    {
        "name": "RED ROSE SPA",
        "address": "213-39 35th Ave, 2nd Floor",
        "lat": 40.76923,
        "lon": -73.77327
    },
    {
        "name": "ZUYUAN",
        "address": "48 Mott St Fl 2",
        "lat": 40.71534,
        "lon": -73.99845
    },
    {
        "name": "SKY LUCKY SPA",
        "address": "7419 18th Ave",
        "lat": 40.61349,
        "lon": -73.99557
    },
    {
        "name": "SUNRISE FOOT SPA",
        "address": "5720 A Old Sunrise Hwy",
        "lat": 40.67852,
        "lon": -73.42657
    },
    {
        "name": "NEW HEALING SPA",
        "address": "6306 Northern Blvd",
        "lat": 40.84195,
        "lon": -73.53423
    },
    {
        "name": "SHINE SPA",
        "address": "248 Hempstead Ave",
        "lat": 40.66678,
        "lon": -73.67061
    },
    {
        "name": "RELAXATION SPA",
        "address": "502 Old Liverpool Rd",
        "lat": 43.08858,
        "lon": -76.18716
    },
    {
        "name": "YY MASSAGE SPA",
        "address": "267-05 Hillside Avenue #2A",
        "lat": null,
        "lon": null
    },
    {
        "name": "BODYWORKS",
        "address": "1837 Broadway",
        "lat": 42.79877,
        "lon": -73.96331
    },
    {
        "name": "JULIE SPA",
        "address": "354 Great Neck Rd",
        "lat": 40.77898,
        "lon": -73.73177
    },
    {
        "name": "MIDTOWN SPA",
        "address": "140 E 57th street",
        "lat": 40.76051,
        "lon": -73.9688
    },
    {
        "name": "RED MILLS SPA",
        "address": "559 route 6N",
        "lat": null,
        "lon": null
    },
    {
        "name": "TOKYO SUN SPA",
        "address": "306 E 6th St New York NY 10003",
        "lat": 40.72709,
        "lon": -73.98813
    },
    {
        "name": "S&A SPA",
        "address": "160 E Main St",
        "lat": 40.724,
        "lon": -73.24383
    },
    {
        "name": "BEST MASSAGE",
        "address": "89-26 Roosevelt Avenue",
        "lat": 40.74825,
        "lon": -73.87697
    },
    {
        "name": "LONG TENG",
        "address": "943 Amsterdam Ave",
        "lat": 40.80054,
        "lon": -73.96527
    },
    {
        "name": "WINDSOR SPA",
        "address": "345 Windsor Highway",
        "lat": 41.46166,
        "lon": -74.05238
    },
    {
        "name": "FIFTH AVENUE THAI SPA",
        "address": "5 E 57th St Fl 4",
        "lat": 40.76291,
        "lon": -73.97316
    },
    {
        "name": "RELAX BODY WORK",
        "address": "82 Millwood Rd",
        "lat": 41.19032,
        "lon": -73.79705
    },
    {
        "name": "ASIAN SPA",
        "address": "265 W 37th St",
        "lat": 40.75409,
        "lon": -73.9917
    },
    {
        "name": "ZZ DAY SPA",
        "address": "5 W 35th St",
        "lat": 40.74946,
        "lon": -73.98462
    },
    {
        "name": "ROYAL SPA",
        "address": "54 West 39th St 4th flr",
        "lat": 40.7524,
        "lon": -73.98477
    },
    {
        "name": "RENEW BODY WELLNESS",
        "address": "95 Main Street",
        "lat": 40.847,
        "lon": -73.69482
    },
    {
        "name": "BBP SPA ENTERPRISES",
        "address": "356 Middle Country Road Suite 301 A",
        "lat": 40.86979,
        "lon": -72.9987
    },
    {
        "name": "LILY SPA",
        "address": "878 U.S. 9",
        "lat": 43.33416,
        "lon": -73.67834
    },
    {
        "name": "YAN YAN FOOT SPA",
        "address": "628 Mamaroneck Ave",
        "lat": 40.95415,
        "lon": -73.73937
    },
    {
        "name": "HUAXIN NICE BODYWORK SPA",
        "address": "42 East Merrick Road",
        "lat": 40.65457,
        "lon": -73.57817
    },
    {
        "name": "CHERRY BEAUTY SPA",
        "address": "Main St & Cherry Ave",
        "lat": null,
        "lon": null
    },
    {
        "name": "EMPORER SPA",
        "address": "135-10 Roosevelt Ave #Bsmt",
        "lat": null,
        "lon": null
    },
    {
        "name": "LUNA HEALTH SPA",
        "address": "77-02 Roosevelt Ave, 2nd Floor",
        "lat": 40.7469,
        "lon": -73.88831
    },
    {
        "name": "SUNRISE SPA",
        "address": "2479 65th St",
        "lat": 40.61011,
        "lon": -73.97487
    },
    {
        "name": "KING RELAXATION",
        "address": "349 Route 211 East",
        "lat": 41.45536,
        "lon": -74.39699
    },
    {
        "name": "CLASSIC SPA",
        "address": "164-03 Northern Blvd",
        "lat": 40.76088,
        "lon": -73.80176
    },
    {
        "name": "ACUPUNCTURE CARE",
        "address": "294 East Jericho Turnpike",
        "lat": 40.82898,
        "lon": -73.39907
    },
    {
        "name": "CHINESE BODY WORK",
        "address": "152-154 W 72nd St Fl 2, Room 2B",
        "lat": 40.77796,
        "lon": -73.98079
    },
    {
        "name": "VANESSA SPA",
        "address": "54 W 39th St",
        "lat": 40.7524,
        "lon": -73.98477
    },
    {
        "name": "ELITEBODYRUB",
        "address": "1007 2nd ave",
        "lat": 40.75706,
        "lon": -73.96725
    },
    {
        "name": "SUNNY SPA",
        "address": "58e W 34th St",
        "lat": 40.7495,
        "lon": -73.98756
    },
    {
        "name": "SPA 45",
        "address": "459 Lexington Ave",
        "lat": 40.7534,
        "lon": -73.97436
    },
    {
        "name": "NANUET HEALTH SPA",
        "address": "344 Route 59",
        "lat": 41.10205,
        "lon": -74.02615
    },
    {
        "name": "RELAXING STATION",
        "address": "583 Montauk Hwy",
        "lat": 40.73172,
        "lon": -73.10989
    },
    {
        "name": "WONDERLAND FOOT SPA",
        "address": "1955 C Deer Park Ave",
        "lat": 40.76441,
        "lon": -73.33023
    },
    {
        "name": "SOPHIA SPA",
        "address": "83-33 Broadway 2F",
        "lat": 40.73797,
        "lon": -73.88013
    },
    {
        "name": "ZENSATION",
        "address": "3316 NY-112 unit g",
        "lat": 40.84401,
        "lon": -72.99752
    },
    {
        "name": "LULU NATURAL THERAPY SPA",
        "address": "15 West Prospect Ave",
        "lat": 40.91276,
        "lon": -73.83791
    },
    {
        "name": "98 BODYWORK",
        "address": "98-09 Astoria Blvd",
        "lat": 40.76258,
        "lon": -73.87098
    },
    {
        "name": "EMPORA SPA",
        "address": "45-13 Little Neck Pkwy",
        "lat": 40.77074,
        "lon": -73.7347
    },
    {
        "name": "ROSA SPA",
        "address": "93-22 Corona Ave",
        "lat": 40.74219,
        "lon": -73.87055
    },
    {
        "name": "CHANG THAI SPA",
        "address": "161-12 Northern Blvd",
        "lat": 40.76229,
        "lon": -73.80435
    },
    {
        "name": "MN BODY & FOOT MASSAGE SPA",
        "address": "90B E Main St",
        "lat": 40.76535,
        "lon": -73.0129
    },
    {
        "name": "ASIAN BODYWORK",
        "address": "135 W 58th St & 6 Ave",
        "lat": 40.76572,
        "lon": -73.97775
    },
    {
        "name": "CHANEL SPA",
        "address": "33-52 Prince St",
        "lat": 40.76502,
        "lon": -73.83377
    },
    {
        "name": "BRONX WELLNESS ACUPUNCTURE  &  MASSAGE",
        "address": "2510 Westchester Ave Suite 110",
        "lat": 40.83918,
        "lon": -73.84336
    },
    {
        "name": "SKIN BEAUTY SALON",
        "address": "125 Elizabeth st  south store",
        "lat": null,
        "lon": null
    },
    {
        "name": "LUCKY 7 SPA",
        "address": "709 Walt Whitman Route 110",
        "lat": null,
        "lon": null
    },
    {
        "name": "SWEET CASTLE FOOT SPA",
        "address": "1840 Merrick Rd",
        "lat": 40.65367,
        "lon": -73.55465
    },
    {
        "name": "NEW POSH FOOT SPA",
        "address": "1723 E Main St",
        "lat": 41.32409,
        "lon": -73.85126
    },
    {
        "name": "BROOK STREAT BODY WORK",
        "address": "193 Brook Street",
        "lat": 40.97652,
        "lon": -73.80361
    },
    {
        "name": "EURO MASSAGE",
        "address": "2655 Route 17M",
        "lat": 41.39743,
        "lon": -74.36671
    },
    {
        "name": "BRONXVILLE ASIAN MASSAGE SPA",
        "address": "495 New Rochelle Rd",
        "lat": 40.92857,
        "lon": -73.80815
    },
    {
        "name": "LISA SPA MASSAGE",
        "address": "122 W 20th St 1FW",
        "lat": 40.74132,
        "lon": -73.99539
    },
    {
        "name": "R&R SPA",
        "address": "355 7th ave 2FL 30St",
        "lat": 40.74825,
        "lon": -73.99235
    },
    {
        "name": "GODDESS SPA",
        "address": "825 Annadale rd 1FL",
        "lat": 40.54171,
        "lon": -74.17728
    },
    {
        "name": "ORIENTAL PALM SPA",
        "address": "72-63 Kissena Blvd",
        "lat": 40.72758,
        "lon": -73.81279
    },
    {
        "name": "V-JA'S LOUNGE",
        "address": "307 E Main St",
        "lat": 43.03473,
        "lon": -75.06554
    },
    {
        "name": "RAINFOREST RELAXATION CENTER",
        "address": "485 4th Avenue",
        "lat": 40.66851,
        "lon": -73.98991
    },
    {
        "name": "SUN WELLNESS SPA",
        "address": "1321 Erie Blvd",
        "lat": 42.81898,
        "lon": -73.93952
    },
    {
        "name": "BLUE SEA SPA",
        "address": "162-02 Union Tpke",
        "lat": 40.72091,
        "lon": -73.8053
    },
    {
        "name": "SERENITY 88 SPA",
        "address": "56-11 Marathon Parkway",
        "lat": 40.76008,
        "lon": -73.7312
    },
    {
        "name": "VIVI 1 MASSAGE SPA",
        "address": "134-10 Jamaica Ave",
        "lat": 40.70223,
        "lon": -73.81823
    },
    {
        "name": "SKY SPA",
        "address": "Midtown east 2nd ave",
        "lat": 40.75803,
        "lon": -73.96627
    },
    {
        "name": "ORIENTAL DAY SPA",
        "address": "211 Irving Ave Ste C",
        "lat": 41.00332,
        "lon": -73.66673
    },
    {
        "name": "BODYWORK SPA",
        "address": "729 Meeker Ave",
        "lat": 40.72386,
        "lon": -73.93884
    },
    {
        "name": "EASY SPA",
        "address": "2419 Route 82",
        "lat": 41.66998,
        "lon": -73.73602
    },
    {
        "name": "EASTERN ZEN SPA",
        "address": "1006 New Loudon Rd",
        "lat": 42.77288,
        "lon": -73.75328
    },
    {
        "name": "LAVENDER RELAXING SPA",
        "address": "499 Hempstead Turnpike unit a",
        "lat": 40.70554,
        "lon": -73.65814
    },
    {
        "name": "WENDY BODYWORK INC",
        "address": "200 W 14TH ST",
        "lat": 40.73855,
        "lon": -74.0001
    },
    {
        "name": "FANTASIA  SPA",
        "address": "150-48 14th Ave",
        "lat": null,
        "lon": null
    },
    {
        "name": "LEMON SPA",
        "address": "829 6th Ave New York, NY",
        "lat": 40.74663,
        "lon": -73.99043
    },
    {
        "name": "TOKYO SUNNA SPA",
        "address": "33-59 Farrington st",
        "lat": 40.76519,
        "lon": -73.83173
    },
    {
        "name": "BERGEN SPA",
        "address": "64 Bergen Street",
        "lat": 40.68672,
        "lon": -73.99115
    },
    {
        "name": "BLUE MOON SPA",
        "address": "132-05 sanford ave",
        "lat": 40.75509,
        "lon": -73.83256
    },
    {
        "name": "BODY KNEADS",
        "address": "41 N Main St",
        "lat": 41.8002,
        "lon": -74.74607
    },
    {
        "name": "IRRESISTIBLE BODY WORK",
        "address": "39-29 47th Ave",
        "lat": 40.74201,
        "lon": -73.92539
    },
    {
        "name": "KING SPA",
        "address": "22 E 66th St",
        "lat": 40.76796,
        "lon": -73.96878
    },
    {
        "name": "P H N BEAUTY SPA",
        "address": "55 Bayard Street",
        "lat": 40.71515,
        "lon": -73.99791
    },
    {
        "name": "MOON SPA",
        "address": "729 Delafield Ave",
        "lat": 40.62947,
        "lon": -74.12292
    },
    {
        "name": "EAST ISLAND ASIAN SPA",
        "address": "2nd St & 1st Ave",
        "lat": null,
        "lon": null
    },
    {
        "name": "ASIAN MASSAGE",
        "address": "36-07 College Point Blvd",
        "lat": 40.7619,
        "lon": -73.8352
    },
    {
        "name": "57 WONDERFUL SPA",
        "address": "57 W 57th St #1103",
        "lat": null,
        "lon": null
    },
    {
        "name": "APPLE SPA",
        "address": "E Jericho Tpke & Goeller Ave",
        "lat": 40.82836,
        "lon": -73.40947
    },
    {
        "name": "ASIAN MASSAGE",
        "address": "1837 Broadway Ave,",
        "lat": 42.79562,
        "lon": -74.00651
    },
    {
        "name": "FLOWER ACUPRESSURE",
        "address": "775 Brooklyn Avenue",
        "lat": 40.65704,
        "lon": -73.60857
    },
    {
        "name": "HAPPY FOOT 5",
        "address": "146 Shore Road",
        "lat": 40.84212,
        "lon": -73.70757
    },
    {
        "name": "INDEPENDENT",
        "address": "E 57th St & Park Ave New York",
        "lat": 40.76018,
        "lon": -73.96733
    },
    {
        "name": "NORTH PORT ASIAN SPA",
        "address": "2006 Jericho Tpk E",
        "lat": 40.83852,
        "lon": -73.32779
    },
    {
        "name": "SINCERE WISHES SPA",
        "address": "136-51 37th Ave Ste 101",
        "lat": 40.76224,
        "lon": -73.82934
    },
    {
        "name": "UPSCALE SPA",
        "address": "60 45th st #3f",
        "lat": null,
        "lon": null
    },
    {
        "name": "AROMA SPA",
        "address": "3433 U.S. 9W",
        "lat": 41.7377,
        "lon": -73.96272
    },
    {
        "name": "COCO MASSAGE",
        "address": "136-20 cherry ave",
        "lat": 40.75268,
        "lon": -73.82598
    },
    {
        "name": "ASIANJEWEL SPA",
        "address": "214 Jamaica Ave",
        "lat": 40.71655,
        "lon": -73.74291
    },
    {
        "name": "INDEPENDENT - ASIANS",
        "address": "E 40th St & Lexington Ave",
        "lat": 40.74982,
        "lon": -73.97616
    },
    {
        "name": "SOUL",
        "address": "191 East 3rd St #1A",
        "lat": null,
        "lon": null
    },
    {
        "name": "JIXIANG SPA",
        "address": "180 Broadway",
        "lat": 40.76483,
        "lon": -73.52097
    },
    {
        "name": "DREAMER SPA",
        "address": "85-04 Queens Blvd",
        "lat": 40.73659,
        "lon": -73.87811
    },
    {
        "name": "888 BEAUTYSPA",
        "address": "204 Station plz",
        "lat": 40.74095,
        "lon": -73.64032
    },
    {
        "name": "CROSSBAY NET WELLNESS",
        "address": "10542 Crossbay Blvd",
        "lat": 40.67914,
        "lon": -73.8447
    },
    {
        "name": "DU YU ACUPRESSURE SPA",
        "address": "48 W 46th St 3rd FL",
        "lat": 40.75677,
        "lon": -73.98129
    },
    {
        "name": "SUMMER ROSE BODY WORKS",
        "address": "939 8th Ave Ste 505",
        "lat": 40.76588,
        "lon": -73.98381
    },
    {
        "name": "ROYAL SPA",
        "address": "206 W 23rd St, 2nd Floor",
        "lat": 40.74424,
        "lon": -73.99621
    },
    {
        "name": "LAVANDE ASIAN SPA",
        "address": "3982 Amboy Road",
        "lat": 40.55043,
        "lon": -74.15029
    },
    {
        "name": "BODYRUBNYC",
        "address": "243 E 38th St",
        "lat": 40.74756,
        "lon": -73.97431
    },
    {
        "name": "PURE BLISS SPA",
        "address": "243 W 38th St",
        "lat": 40.75436,
        "lon": -73.9902
    },
    {
        "name": "PERFECT STUDIO MASSAGE SPA",
        "address": "1825 Van Wranken Ave",
        "lat": 42.82654,
        "lon": -73.92278
    },
    {
        "name": "GALAXYSPA",
        "address": "35 E 28th St #2FL",
        "lat": null,
        "lon": null
    },
    {
        "name": "HIMALAYA SPA",
        "address": "43-08 25th Ave",
        "lat": 40.76656,
        "lon": -73.90912
    },
    {
        "name": "TIAN TANG SPA",
        "address": "3014 Erie Blvd E",
        "lat": 43.05517,
        "lon": -76.08549
    },
    {
        "name": "ASIAN BODYSLIDE",
        "address": "34 W 46th St",
        "lat": 40.75652,
        "lon": -73.98084
    },
    {
        "name": "ROYAL MAX STUDIO - EROTIC & NURU MASSAGE PARLOR",
        "address": "245 East 37th",
        "lat": 40.74692,
        "lon": -73.97469
    },
    {
        "name": "FOUR LEAF CLOVER SPA",
        "address": "176 North Ave",
        "lat": 40.90882,
        "lon": -73.78017
    },
    {
        "name": "ZHEN ZHEN SPA",
        "address": "38 Carleton Ave",
        "lat": 40.78925,
        "lon": -73.20128
    },
    {
        "name": "CHARMING HAND SPA RELAXATION",
        "address": "435 Main St",
        "lat": 40.72953,
        "lon": -73.44479
    },
    {
        "name": "MARVELOUS SPA",
        "address": "4350 Hylan Blvd",
        "lat": 40.5345,
        "lon": -74.1532
    },
    {
        "name": "LONG ISLAND ASIAN MASSAGE",
        "address": "72 Cerleton Ave",
        "lat": 40.78785,
        "lon": -73.20103
    },
    {
        "name": "BODYWORK BY SENSUAL SAMANTHA",
        "address": "Hawkins ave Ronkonkoma",
        "lat": 40.83078,
        "lon": -73.10838
    },
    {
        "name": "LUCKY SPA",
        "address": "3078 Stienway st",
        "lat": 40.76202,
        "lon": -73.9168
    },
    {
        "name": "BODY RUB",
        "address": "West 54 and 8 ave",
        "lat": 40.7648,
        "lon": -73.98429
    },
    {
        "name": "PARADISE SPA",
        "address": "140-48 Queens Blvd.",
        "lat": 40.70286,
        "lon": -73.81475
    },
    {
        "name": "SUNSHINE BODY SPA",
        "address": "38-12 30th Ave",
        "lat": 40.76395,
        "lon": -73.91549
    },
    {
        "name": "REST AND RELAX",
        "address": "910 3rd Avenue",
        "lat": 40.75939,
        "lon": -73.96978
    },
    {
        "name": "CI-CI",
        "address": "247 W 35th St, 10th Floor",
        "lat": 40.75262,
        "lon": -73.99187
    },
    {
        "name": "SUNDAY SPA",
        "address": "149-07 14th Ave #2FL,",
        "lat": null,
        "lon": null
    },
    {
        "name": "EMPEROR SPA",
        "address": "565 US-6,#5",
        "lat": null,
        "lon": null
    },
    {
        "name": "DREAM SPA",
        "address": "799 Lexington Ave",
        "lat": 40.76389,
        "lon": -73.96673
    },
    {
        "name": "BEST SPA",
        "address": "1952 Coney Island Ave -P",
        "lat": 40.60959,
        "lon": -73.96255
    },
    {
        "name": "WAIKIKI SPA",
        "address": "37 E 29th St, Suite B",
        "lat": 40.74443,
        "lon": -73.98431
    },
    {
        "name": "MAHOPAC SPA",
        "address": "936 S Lake Blvd",
        "lat": 41.372,
        "lon": -73.73613
    },
    {
        "name": "ASIAN SPA QBA",
        "address": "340 Aviation Rd Unit 8",
        "lat": 43.32979,
        "lon": -73.69774
    },
    {
        "name": "ALL AMERICAN BODY RUB",
        "address": "60 E 34th",
        "lat": 40.74717,
        "lon": -73.98215
    },
    {
        "name": "ANGEL SPA",
        "address": "432 commerce st",
        "lat": 41.11155,
        "lon": -73.794
    },
    {
        "name": "TAO FOOT SPA",
        "address": "279 Smithtown Blvd",
        "lat": 40.83283,
        "lon": -73.14146
    },
    {
        "name": "FORT HILL SERENITY SPA",
        "address": "33 Fort Hill Ave",
        "lat": 40.98101,
        "lon": -73.83094
    },
    {
        "name": "GRAND SPA",
        "address": "297 Grand St",
        "lat": 40.71742,
        "lon": -73.99202
    },
    {
        "name": "THERAPEUTIC MASSAGE",
        "address": "5th Ave and 28th Street",
        "lat": 40.74469,
        "lon": -73.9873
    },
    {
        "name": "GOLD SPA",
        "address": "263 Halstead Avenue 2ndFloor",
        "lat": 40.9682,
        "lon": -73.7137
    },
    {
        "name": "GOOD FORTUNE ASIAN MASSAGE",
        "address": "1743 State St",
        "lat": 43.96704,
        "lon": -75.87942
    },
    {
        "name": "MOMO SPA",
        "address": "45-53 162nd St",
        "lat": 40.75485,
        "lon": -73.8045
    },
    {
        "name": "ONE SPA",
        "address": "831 3rd Ave 3fl.",
        "lat": 40.75624,
        "lon": -73.97026
    },
    {
        "name": "SOPHIA SPA",
        "address": "5346 Van Dam Street",
        "lat": 40.73493,
        "lon": -73.93794
    },
    {
        "name": "987 MEI FLOWER SPA",
        "address": "987 Main Street",
        "lat": 40.91969,
        "lon": -73.78897
    },
    {
        "name": "GOLDEN CENTURY SPA",
        "address": "480 New Rochelle Rd",
        "lat": 40.92884,
        "lon": -73.81006
    },
    {
        "name": "SOOTHE DAY SPA",
        "address": "22 beaver street",
        "lat": 40.70482,
        "lon": -74.01219
    },
    {
        "name": "LOTUS SPA",
        "address": "131-23 31st Ave",
        "lat": 40.76949,
        "lon": -73.83818
    },
    {
        "name": "TOP NOTCH MASSAGE SPA",
        "address": "223 Glen Cove Ave",
        "lat": 40.84806,
        "lon": -73.63581
    },
    {
        "name": "HEALTH SPA NYC",
        "address": "9229 Queens Blvd",
        "lat": 40.73244,
        "lon": -73.86681
    },
    {
        "name": "TULIP WELLNESS",
        "address": "115 E 27th streer",
        "lat": 40.74256,
        "lon": -73.98368
    },
    {
        "name": "NEW CHARM SPA",
        "address": "46 & 47th street and 6th Ave 3Fl",
        "lat": null,
        "lon": null
    },
    {
        "name": "RM SKINCARE & LASER SPA",
        "address": "136-18 39th Ave STE 903",
        "lat": 40.76024,
        "lon": -73.82946
    },
    {
        "name": "STEINWAY DIAMOND SPA",
        "address": "141-43 Northern Blvd #2",
        "lat": null,
        "lon": null
    },
    {
        "name": "IDEAL & ENHANCEMENT FOOT SPA",
        "address": "142 5th Ave",
        "lat": 40.91331,
        "lon": -73.80837
    },
    {
        "name": "AROMA THERAPY",
        "address": "122-15 25th Road college point",
        "lat": 40.7759,
        "lon": -73.84563
    },
    {
        "name": "FORTUNA BEAUTY SALON",
        "address": "331 Grand St.",
        "lat": 40.71689,
        "lon": -73.99038
    },
    {
        "name": "58 BEAUTY",
        "address": "6916 13ht",
        "lat": 40.61377,
        "lon": -74.01532
    },
    {
        "name": "NEW NATURE SPA SERVICES",
        "address": "135 Main St.",
        "lat": 40.8306,
        "lon": -73.69172
    },
    {
        "name": "ANNA HEALTH CENTER",
        "address": "99-34 67th Rd",
        "lat": 40.72455,
        "lon": -73.85353
    },
    {
        "name": "SUNSET SPA",
        "address": "251-13 Northern Blvd",
        "lat": 40.76928,
        "lon": -73.73672
    },
    {
        "name": "BODYWORK MASSAGE",
        "address": "134 E North Ave",
        "lat": null,
        "lon": null
    },
    {
        "name": "BODY WORK ASIAN FOOT SPA",
        "address": "451 Route 25 A",
        "lat": 40.9426,
        "lon": -72.98486
    },
    {
        "name": "ASIAN SPA",
        "address": "247-75 Jericho Turnpike",
        "lat": 40.72618,
        "lon": -73.71878
    },
    {
        "name": "QUEEN SPA",
        "address": "3050 C Niagara Falls Blvd",
        "lat": 43.03781,
        "lon": -78.82419
    },
    {
        "name": "MIDTOWN ANGELS",
        "address": "333 E 33rd",
        "lat": 40.74372,
        "lon": -73.97485
    },
    {
        "name": "SHIATSU SPA",
        "address": "581 E Boston Post Rd",
        "lat": 40.95152,
        "lon": -73.728
    },
    {
        "name": "NATURAL BODY WORKS",
        "address": "112 John St",
        "lat": 40.70768,
        "lon": -74.00594
    },
    {
        "name": "WELLNESS ACUPRESSURE",
        "address": "12 E 32nd St",
        "lat": 40.74669,
        "lon": -73.98475
    },
    {
        "name": "GUOFENG TANG ACUPUNCTURE HEALTH CARE",
        "address": "90-44 84th St",
        "lat": 40.68711,
        "lon": -73.85849
    },
    {
        "name": "SONG'S BODY ZEN INC.",
        "address": "30-47 Steinway St",
        "lat": 40.7626,
        "lon": -73.91577
    },
    {
        "name": "AWESOME FOOT SPA",
        "address": "237 commack road",
        "lat": 40.83698,
        "lon": -73.29512
    },
    {
        "name": "HEAVEN SPA",
        "address": "355 7th ave",
        "lat": 40.74825,
        "lon": -73.99235
    },
    {
        "name": "NEW PARADISE SPA",
        "address": "248-25 Northern Blvd #2F",
        "lat": null,
        "lon": null
    },
    {
        "name": "PINK 30",
        "address": "862 6th Ave.",
        "lat": 40.74741,
        "lon": -73.98924
    },
    {
        "name": "SPA",
        "address": "764 53St",
        "lat": 40.63964,
        "lon": -74.00622
    },
    {
        "name": "TIMELESS MASSAGE",
        "address": "6221 NY-31 #107",
        "lat": null,
        "lon": null
    },
    {
        "name": "LOVE SONG SPA",
        "address": "24 Emma Street",
        "lat": 42.11261,
        "lon": -75.94177
    },
    {
        "name": "BE BE DAY SPA",
        "address": "2178 86th St",
        "lat": 40.60182,
        "lon": -73.99368
    },
    {
        "name": "SOARING FOOT SPA",
        "address": "2108 Bath Ave",
        "lat": 40.5997,
        "lon": -73.99931
    },
    {
        "name": "SUNFAY BODY WORK",
        "address": "30-60 steinway Street Astoria Ny 11103",
        "lat": 40.76254,
        "lon": -73.91649
    },
    {
        "name": "HEWLETT SPA",
        "address": "20 Franklin Ave",
        "lat": 40.63725,
        "lon": -73.70342
    },
    {
        "name": "COZY MASSAGE & FACIAL",
        "address": "1938 Williamsbridge Rd",
        "lat": 40.85325,
        "lon": -73.85332
    },
    {
        "name": "CANDY SPA",
        "address": "234 Canal St #205",
        "lat": null,
        "lon": null
    },
    {
        "name": "K&R SPA",
        "address": "107 Newbridge Rd",
        "lat": 40.77237,
        "lon": -73.5275
    },
    {
        "name": "BEST MASSAGE",
        "address": "40-32 149th PL 2 FL",
        "lat": 40.76247,
        "lon": -73.81511
    },
    {
        "name": "KANGLI SPA",
        "address": "6903 E Genesee St",
        "lat": 43.02863,
        "lon": -76.04416
    },
    {
        "name": "SPA 2022",
        "address": "28-57 Steinway St",
        "lat": 40.764,
        "lon": -73.91452
    },
    {
        "name": "GOLDEN SAND ASIAN SPA",
        "address": "214 N Comrie Ave",
        "lat": 43.01641,
        "lon": -74.36117
    },
    {
        "name": "TAO SPA",
        "address": "3 Tassone Ct",
        "lat": 41.56074,
        "lon": -73.90261
    },
    {
        "name": "SPRING DAY SPA",
        "address": "77 North Broadway",
        "lat": 40.77063,
        "lon": -73.52631
    },
    {
        "name": "SERENITY SPA",
        "address": "25-19 Astoria Blvd",
        "lat": 40.77134,
        "lon": -73.92209
    },
    {
        "name": "MAGICAL HANDS EXPERIENCE",
        "address": "326 7th St",
        "lat": 40.67019,
        "lon": -73.98515
    },
    {
        "name": "ASIAN SPA",
        "address": "9045 Corona Avenue",
        "lat": 40.74234,
        "lon": -73.87424
    },
    {
        "name": "HAN DU SPA",
        "address": "6 Midland Ave",
        "lat": 40.77425,
        "lon": -73.51796
    },
    {
        "name": "YOYO HEALING SPA",
        "address": "135 E Main St",
        "lat": 41.05209,
        "lon": -73.81337
    },
    {
        "name": "ACE DAY SPA",
        "address": "9 Westshore Plaza 580 Route 303",
        "lat": 41.06261,
        "lon": -73.95005
    },
    {
        "name": "ZZ MASSAGES",
        "address": "5 W 35th St",
        "lat": 40.74946,
        "lon": -73.98462
    },
    {
        "name": "SUN & MOON SPA",
        "address": "357 Old Forge Hill Rd",
        "lat": 41.45893,
        "lon": -74.05364
    },
    {
        "name": "MELODY SPA",
        "address": "192-25 Station Road",
        "lat": 40.76127,
        "lon": -73.78919
    },
    {
        "name": "AV BODYWORK",
        "address": "E 38th St and Madison Ave",
        "lat": 40.75029,
        "lon": -73.98114
    },
    {
        "name": "GW NATURAL SPA",
        "address": "2419 Jericho Turnpike",
        "lat": 40.74342,
        "lon": -73.66023
    },
    {
        "name": "LILY SPA",
        "address": "11B Treno St",
        "lat": 40.9229,
        "lon": -73.78741
    },
    {
        "name": "GRACE SPA",
        "address": "6517-18th ave. 2nd floor.",
        "lat": 40.61864,
        "lon": -73.99038
    },
    {
        "name": "LITTLE BIRD SPA",
        "address": "135 Main St",
        "lat": 40.80976,
        "lon": -72.64233
    },
    {
        "name": "SUNNY SPA",
        "address": "58E 34th st",
        "lat": 40.7472,
        "lon": -73.98219
    },
    {
        "name": "LEXINGTION SPA",
        "address": "160 E 88th St New York, NY",
        "lat": 40.78056,
        "lon": -73.95447
    },
    {
        "name": "HONEST MASSAGE",
        "address": "556 third ave",
        "lat": 40.7476,
        "lon": -73.97714
    },
    {
        "name": "IVY BEAUTY SPA",
        "address": "124 Avenue U 2FL",
        "lat": 40.59609,
        "lon": -73.97977
    },
    {
        "name": "LILI FOOT STATION",
        "address": "5346 Van Dam st",
        "lat": 40.73493,
        "lon": -73.93794
    },
    {
        "name": "GADO SPA",
        "address": "153 W 36th St",
        "lat": 40.75216,
        "lon": -73.98881
    },
    {
        "name": "RANI SPA",
        "address": "587 10th Ave",
        "lat": 40.75999,
        "lon": -73.99551
    },
    {
        "name": "NEW ROSEMARY SPA",
        "address": "1670 Bath Ave, Brooklyn, NY 11214",
        "lat": 40.60509,
        "lon": -74.00887
    },
    {
        "name": "HEMPSTEAD WELLNESS",
        "address": "364 Hempstead Turnpike",
        "lat": 40.69468,
        "lon": -73.64623
    },
    {
        "name": "SPA",
        "address": "6517-18th ave. 2nd floor",
        "lat": 40.61864,
        "lon": -73.99038
    },
    {
        "name": "FOOT KIOSK SPA",
        "address": "938 port Washington Blvd",
        "lat": 40.82937,
        "lon": -73.68409
    },
    {
        "name": "COZY DREAM SPA",
        "address": "723 Fulton St",
        "lat": 40.68725,
        "lon": -73.97637
    },
    {
        "name": "VN FOOT SPA",
        "address": "441 US-6",
        "lat": 41.36355,
        "lon": -73.74496
    },
    {
        "name": "GFE ASIA",
        "address": "53rd and 3rd",
        "lat": 40.7577,
        "lon": -73.96942
    },
    {
        "name": "SWEET FOOT SPA",
        "address": "407 Lake Ave",
        "lat": 40.88056,
        "lon": -73.15686
    },
    {
        "name": "MAYFLOWER",
        "address": "303 5th Ave #912",
        "lat": null,
        "lon": null
    },
    {
        "name": "PINK CANDY SPA",
        "address": "55 west 45 street",
        "lat": 40.75648,
        "lon": -73.98147
    },
    {
        "name": "BLISS ROSE MASSAGE SPA",
        "address": "86th Street Brooklyn",
        "lat": 40.60461,
        "lon": -73.99827
    },
    {
        "name": "LAND SPA",
        "address": "41 E 41st St",
        "lat": 40.75001,
        "lon": -73.97469
    },
    {
        "name": "SILK ROCKS",
        "address": "PO Box 1744",
        "lat": 40.66761,
        "lon": -73.41213
    },
    {
        "name": "BROAD AND WALL WELLNESS",
        "address": "105 Broad Street 3rd floor",
        "lat": 40.70313,
        "lon": -74.01142
    },
    {
        "name": "ASIAN FOOT REFLEXOLOGY",
        "address": "611 W 3rd St",
        "lat": 42.09373,
        "lon": -79.25464
    },
    {
        "name": "MENG FLOWER SPA",
        "address": "346 East 59 Street",
        "lat": 40.75962,
        "lon": -73.9623
    },
    {
        "name": "WEST 40 SPA",
        "address": "40th Street and 7th Ave",
        "lat": 40.75475,
        "lon": -73.98789
    },
    {
        "name": "NEW GREEN FOREST SPA",
        "address": "239 West 72nd St fl2",
        "lat": 40.77942,
        "lon": -73.98293
    },
    {
        "name": "MIDTOWN TUINA",
        "address": "235 E 51st St",
        "lat": 40.75607,
        "lon": -73.96875
    },
    {
        "name": "FOOT RELAXATION CENTER",
        "address": "4482 Middle Country Rd",
        "lat": 40.92829,
        "lon": -72.7809
    },
    {
        "name": "GREEN CENTER BODY WORK",
        "address": "340 E. 92nd St.",
        "lat": 40.78085,
        "lon": -73.94745
    },
    {
        "name": "PEARL SPA",
        "address": "2300 Brewerton Rd",
        "lat": 43.09919,
        "lon": -76.14494
    },
    {
        "name": "SUNSHINE HEALTH SPA",
        "address": "1597 York Ave",
        "lat": 40.77493,
        "lon": -73.94816
    },
    {
        "name": "SWEET BABY",
        "address": "5 Northern Blvd 2FL, Great Neck, NY 11021",
        "lat": 40.77279,
        "lon": -73.73389
    },
    {
        "name": "HYLAN SPA",
        "address": "1660 Hylan Blvd & Alter Ave",
        "lat": 40.58793,
        "lon": -74.09035
    },
    {
        "name": "GOLDEN SPA",
        "address": "243 W 38th St New York, NY 10018",
        "lat": 40.75436,
        "lon": -73.9902
    },
    {
        "name": "HANDS ON FULL BODY MASSAGE",
        "address": "1675 E 16th St, 2nd Floor",
        "lat": 40.6087,
        "lon": -73.95722
    },
    {
        "name": "FLAWLESS FOOT SPA",
        "address": "102 DRAKE AVE",
        "lat": 40.90006,
        "lon": -73.78699
    },
    {
        "name": "CHINA RED",
        "address": "88 Court St",
        "lat": 40.69123,
        "lon": -73.99184
    },
    {
        "name": "FANCY FOOT SPA",
        "address": "45 Northern Blvd",
        "lat": 40.77389,
        "lon": -73.73333
    },
    {
        "name": "THAI MASSAGE NYC",
        "address": "50 E 42nd St Ste 503",
        "lat": 40.75234,
        "lon": -73.97896
    },
    {
        "name": "ASIAN SPA",
        "address": "25-47, Steinway,",
        "lat": 40.76666,
        "lon": -73.91237
    },
    {
        "name": "RENEWING WELLNESS",
        "address": "230 West Houston St Fl 2",
        "lat": 40.72868,
        "lon": -74.00502
    },
    {
        "name": "GREEN FLOWER SPA",
        "address": "1119 State St",
        "lat": 42.80065,
        "lon": -73.92651
    },
    {
        "name": "HAUPPAUGE FOOT MASSAGE",
        "address": "373 NY-111 #10",
        "lat": null,
        "lon": null
    },
    {
        "name": "FOOT SPA",
        "address": "626a broadway",
        "lat": 40.66639,
        "lon": -73.47105
    },
    {
        "name": "ASIAN SPA",
        "address": "882 58th St",
        "lat": 40.63524,
        "lon": -74.00656
    },
    {
        "name": "SPRING SPA",
        "address": "2120 Boston Post Rd",
        "lat": 40.92771,
        "lon": -73.75218
    },
    {
        "name": "WJ SPA",
        "address": "2690 Ny-112 Medford",
        "lat": 40.82195,
        "lon": -72.99895
    },
    {
        "name": "SEASONS HEALTH SPA",
        "address": "171-69 46th Ave",
        "lat": 40.75367,
        "lon": -73.79383
    },
    {
        "name": "ASIAN FOOT MASSAGE",
        "address": "875 Horseblock Rd",
        "lat": 40.83112,
        "lon": -73.02622
    },
    {
        "name": "SUNNY SPA MASSAGE",
        "address": "58 East 34th Street",
        "lat": 40.74723,
        "lon": -73.98216
    },
    {
        "name": "UPSCALE BODYRUB",
        "address": "W 38th St & 8th Ave",
        "lat": 40.75471,
        "lon": -73.99163
    },
    {
        "name": "MADE IN RUSSIA",
        "address": "1095 2nd Ave",
        "lat": 40.75985,
        "lon": -73.96522
    },
    {
        "name": "HAPPY FOOT SPA",
        "address": "928 Montauk Hwy, Copiague, NY 11726",
        "lat": 40.66825,
        "lon": -73.39236
    },
    {
        "name": "AMAZING ASIAN MASSAGE",
        "address": "34 West 46th St",
        "lat": 40.75652,
        "lon": -73.98084
    },
    {
        "name": "XING XING SPA",
        "address": "45-53 162 St.",
        "lat": 40.75485,
        "lon": -73.8045
    },
    {
        "name": "ASIAN MASSAGE",
        "address": "46-30 Kissena Blvd",
        "lat": 40.7498,
        "lon": -73.81865
    },
    {
        "name": "COCO BEAUTY SALON",
        "address": "769 50th St",
        "lat": 40.64154,
        "lon": -74.00406
    },
    {
        "name": "EXOTIC TOUCH",
        "address": "Northern Blvd & Farrington St",
        "lat": 40.78873,
        "lon": -73.70563
    },
    {
        "name": "HEALING TOUCH",
        "address": "kissena blvd",
        "lat": 40.73403,
        "lon": -73.81485
    },
    {
        "name": "BODY MASSAGE",
        "address": "40-47 22nd St",
        "lat": 40.75356,
        "lon": -73.94112
    },
    {
        "name": "158 SUNBEAM SPA",
        "address": "202 Greenpoint Ave",
        "lat": 40.73025,
        "lon": -73.9521
    },
    {
        "name": "MADISON HOLISTIC",
        "address": "280 Madison Ave",
        "lat": 40.75142,
        "lon": -73.98051
    },
    {
        "name": "ASIAN MASSAGE",
        "address": "59th Street and 8th Avenue",
        "lat": 40.63608,
        "lon": -74.00895
    },
    {
        "name": "HAPPY FOOT SPA",
        "address": "322 Larkfield Rd",
        "lat": 40.87133,
        "lon": -73.3233
    },
    {
        "name": "ZEN RETREAT SPA",
        "address": "346 Franklin Ave,",
        "lat": 40.69885,
        "lon": -73.68229
    },
    {
        "name": "NEW ANGEL SPA",
        "address": "419 E 82nd St",
        "lat": 40.77401,
        "lon": -73.95006
    },
    {
        "name": "ANNA'S SPA",
        "address": "644 Grand Street",
        "lat": 40.7112,
        "lon": -73.94643
    },
    {
        "name": "CICI FOOTBAR",
        "address": "1395 E 2nd St",
        "lat": 42.11383,
        "lon": -79.20949
    },
    {
        "name": "SKY SPA",
        "address": "359 East 50th Street",
        "lat": 40.75419,
        "lon": -73.96637
    },
    {
        "name": "CAY SPA",
        "address": "219 Smith St",
        "lat": 40.68433,
        "lon": -73.99187
    },
    {
        "name": "SUNNY SPA CENTER",
        "address": "58 East 34th St",
        "lat": 40.74723,
        "lon": -73.98216
    },
    {
        "name": "AMAZING GRACE CC NAIL SPA",
        "address": "408 Church Ave",
        "lat": 40.64393,
        "lon": -73.97622
    },
    {
        "name": "PURPLE SPA",
        "address": "162-42 Pidgeon Meadow Rd",
        "lat": 40.75242,
        "lon": -73.80443
    },
    {
        "name": "B PLUS SPA",
        "address": "3072 Brighton 1st street",
        "lat": 40.5768,
        "lon": -73.96737
    },
    {
        "name": "GRACE SPA",
        "address": "W 47 St & 5th Ave",
        "lat": 40.76073,
        "lon": -73.98821
    },
    {
        "name": "NEW ANGEL'S HEALING SPA",
        "address": "17 S Village Ave.",
        "lat": 40.65595,
        "lon": -73.64776
    },
    {
        "name": "WELLNESS ACUPRESSURE",
        "address": "365 Harry L. Dr.",
        "lat": 42.12349,
        "lon": -75.96307
    },
    {
        "name": "38 GINZA",
        "address": "38 west 38 street",
        "lat": 40.75149,
        "lon": -73.9846
    },
    {
        "name": "NYC THAI WELLNESS CENTER",
        "address": "274 Madison ave #1205",
        "lat": null,
        "lon": null
    },
    {
        "name": "TRANQUIL SPA",
        "address": "437 ward Ave #2ndFL",
        "lat": null,
        "lon": null
    },